[
     {
       "id": "1",
       "titleEn": "El Arba'ain (Suez) (Suez)",
       "titleAr": "الاربعين (السويس)",
       "lat": 29.9864666,
       "lng": 32.5429309,
       "cityId": 17,
       "cityTitleEn": "Suez",
       "cityTitleAr": "السويس",
       "branchId": null,
       "deliveryZoneId": null,
       "__typename": "CountryAreas"
     },
     {
       "id": "2",
       "titleEn": "Suez University (Suez) (Suez)",
       "titleAr": "جامعه السويس (السويس)",
       "lat": 29.997498,
       "lng": 32.500551,
       "cityId": 17,
       "cityTitleEn": "Suez",
       "cityTitleAr": "السويس",
       "branchId": null,
       "deliveryZoneId": null,
       "__typename": "CountryAreas"
     },
     {
       "id": "3",
       "titleEn": "Sharea' Othman Ebn Afaan (Suez) (Suez)",
       "titleAr": "شارع عثمان ابن عفان (السويس)",
       "lat": 30.0026674,
       "lng": 32.4908969,
       "cityId": 17,
       "cityTitleEn": "Suez",
       "cityTitleAr": "السويس",
       "branchId": null,
       "deliveryZoneId": null,
       "__typename": "CountryAreas"
     },
     {
       "id": "4",
       "titleEn": "Corniche - ElShohada' Park (Suez) (Suez)",
       "titleAr": "الكورنيش - حديقة الشهداء (السويس)",
       "lat": 29.9628813,
       "lng": 32.5519457,
       "cityId": 17,
       "cityTitleEn": "Suez",
       "cityTitleAr": "السويس",
       "branchId": null,
       "deliveryZoneId": null,
       "__typename": "CountryAreas"
     },
     {
       "id": "5",
       "titleEn": "Masaken El Ewa'a El A'agel (Suez) (Suez)",
       "titleAr": "مساكن الايواء العاجل (السويس)",
       "lat": 29.9942892,
       "lng": 32.5131409,
       "cityId": 17,
       "cityTitleEn": "Suez",
       "cityTitleAr": "السويس",
       "branchId": null,
       "deliveryZoneId": null,
       "__typename": "CountryAreas"
     },
     {
       "id": "6",
       "titleEn": "Salah Nessim Street (Suez) (Suez)",
       "titleAr": "شارع صلاح نسيم (السويس)",
       "lat": 29.9620993,
       "lng": 32.5222567,
       "cityId": 17,
       "cityTitleEn": "Suez",
       "cityTitleAr": "السويس",
       "branchId": null,
       "deliveryZoneId": null,
       "__typename": "CountryAreas"
     },
     {
       "id": "7",
       "titleEn": "Al Safaa (Suez) (Suez)",
       "titleAr": "الصفا (السويس)",
       "lat": 29.9529205,
       "lng": 32.4818222,
       "cityId": 17,
       "cityTitleEn": "Suez",
       "cityTitleAr": "السويس",
       "branchId": null,
       "deliveryZoneId": null,
       "__typename": "CountryAreas"
     },
     {
       "id": "8",
       "titleEn": "Al Herafyeen (Suez) (Suez)",
       "titleAr": "الحرفيين (السويس)",
       "lat": 29.9843009,
       "lng": 32.5111075,
       "cityId": 17,
       "cityTitleEn": "Suez",
       "cityTitleAr": "السويس",
       "branchId": null,
       "deliveryZoneId": null,
       "__typename": "CountryAreas"
     },
     {
       "id": "9",
       "titleEn": "Markaz AlEsa'af AlTebbi (Suez) (Suez)",
       "titleAr": "مركز الاسعاف الطبي (السويس)",
       "lat": 29.9649894,
       "lng": 32.5408111,
       "cityId": 17,
       "cityTitleEn": "Suez",
       "cityTitleAr": "السويس",
       "branchId": null,
       "deliveryZoneId": null,
       "__typename": "CountryAreas"
     },
     {
       "id": "10",
       "titleEn": "Al Salam 1 (Suez) (Suez)",
       "titleAr": "السلام 1 (السويس)",
       "lat": 30.0090333,
       "lng": 32.4891791,
       "cityId": 17,
       "cityTitleEn": "Suez",
       "cityTitleAr": "السويس",
       "branchId": null,
       "deliveryZoneId": null,
       "__typename": "CountryAreas"
     },
     {
       "id": "11",
       "titleEn": "El Moshy (Suez) (Suez)",
       "titleAr": "الموشي (السويس)",
       "lat": 29.9849635,
       "lng": 32.5040343,
       "cityId": 17,
       "cityTitleEn": "Suez",
       "cityTitleAr": "السويس",
       "branchId": null,
       "deliveryZoneId": null,
       "__typename": "CountryAreas"
     },
     {
       "id": "12",
       "titleEn": "Sharea' El Nile (Suez) (Suez)",
       "titleAr": "شارع النيل (السويس)",
       "lat": 30.0450837,
       "lng": 31.2185478,
       "cityId": 17,
       "cityTitleEn": "Suez",
       "cityTitleAr": "السويس",
       "branchId": null,
       "deliveryZoneId": null,
       "__typename": "CountryAreas"
     },
     {
       "id": "13",
       "titleEn": "Mostashfa AlHommeyat (Suez) (Suez)",
       "titleAr": "مستشفي الحميات (السويس)",
       "lat": 29.9665787,
       "lng": 32.5452848,
       "cityId": 17,
       "cityTitleEn": "Suez",
       "cityTitleAr": "السويس",
       "branchId": null,
       "deliveryZoneId": null,
       "__typename": "CountryAreas"
     },
     {
       "id": "14",
       "titleEn": "Gabalyat El Far (Suez) (Suez)",
       "titleAr": "جبلايه الفار (السويس)",
       "lat": 29.9878205,
       "lng": 32.553183,
       "cityId": 17,
       "cityTitleEn": "Suez",
       "cityTitleAr": "السويس",
       "branchId": null,
       "deliveryZoneId": null,
       "__typename": "CountryAreas"
     },
     {
       "id": "15",
       "titleEn": "Abu Aref (Suez) (Suez)",
       "titleAr": "أبو عارف (السويس)",
       "lat": 29.9962794,
       "lng": 32.5563645,
       "cityId": 17,
       "cityTitleEn": "Suez",
       "cityTitleAr": "السويس",
       "branchId": null,
       "deliveryZoneId": null,
       "__typename": "CountryAreas"
     },
     {
       "id": "16",
       "titleEn": "El Mashroua'a (Suez) (Suez)",
       "titleAr": "المشروع (السويس)",
       "lat": 30.0112389,
       "lng": 32.5697964,
       "cityId": 17,
       "cityTitleEn": "Suez",
       "cityTitleAr": "السويس",
       "branchId": null,
       "deliveryZoneId": null,
       "__typename": "CountryAreas"
     },
     {
       "id": "17",
       "titleEn": "Kafr Abdo El Gedid (Suez) (Suez)",
       "titleAr": "كفرعبده الجديد (السويس)",
       "lat": 29.9693091,
       "lng": 32.5280812,
       "cityId": 17,
       "cityTitleEn": "Suez",
       "cityTitleAr": "السويس",
       "branchId": null,
       "deliveryZoneId": null,
       "__typename": "CountryAreas"
     },
     {
       "id": "18",
       "titleEn": "Masaken El Nahda El Gedida (Suez) (Suez)",
       "titleAr": "مساكن النهضه الجديده (السويس)",
       "lat": 29.9727716,
       "lng": 32.4828119,
       "cityId": 17,
       "cityTitleEn": "Suez",
       "cityTitleAr": "السويس",
       "branchId": null,
       "deliveryZoneId": null,
       "__typename": "CountryAreas"
     },
     {
       "id": "19",
       "titleEn": "Arab El Ma'mal Road (Suez) (Suez)",
       "titleAr": "طريق عرب المعمل (السويس)",
       "lat": 29.9644521,
       "lng": 32.5078542,
       "cityId": 17,
       "cityTitleEn": "Suez",
       "cityTitleAr": "السويس",
       "branchId": null,
       "deliveryZoneId": null,
       "__typename": "CountryAreas"
     },
     {
       "id": "20",
       "titleEn": "Masaken El Rehab (Suez) (Suez)",
       "titleAr": "مساكن الرحاب (السويس)",
       "lat": 29.9727387,
       "lng": 32.4969606,
       "cityId": 17,
       "cityTitleEn": "Suez",
       "cityTitleAr": "السويس",
       "branchId": null,
       "deliveryZoneId": null,
       "__typename": "CountryAreas"
     },
     {
       "id": "21",
       "titleEn": "Salah ElDin Street (Suez) (Suez)",
       "titleAr": "شارع صلاح الدين (السويس)",
       "lat": 29.9647819,
       "lng": 32.5544875,
       "cityId": 17,
       "cityTitleEn": "Suez",
       "cityTitleAr": "السويس",
       "branchId": null,
       "deliveryZoneId": null,
       "__typename": "CountryAreas"
     },
     {
       "id": "22",
       "titleEn": "Sharea' El Khawaga (Suez) (Suez)",
       "titleAr": "شارع الخواجه (السويس)",
       "lat": 29.9752284,
       "lng": 32.5436098,
       "cityId": 17,
       "cityTitleEn": "Suez",
       "cityTitleAr": "السويس",
       "branchId": null,
       "deliveryZoneId": null,
       "__typename": "CountryAreas"
     },
     {
       "id": "23",
       "titleEn": "Fasial (Suez) (Suez)",
       "titleAr": "فيصل (السويس)",
       "lat": 30.1671067,
       "lng": 32.1291843,
       "cityId": 17,
       "cityTitleEn": "Suez",
       "cityTitleAr": "السويس",
       "branchId": null,
       "deliveryZoneId": null,
       "__typename": "CountryAreas"
     },
     {
       "id": "24",
       "titleEn": "Ta'wenyat El Sherka El Arabia (Suez) (Suez)",
       "titleAr": "تعاونيات الشركه العربيه (السويس)",
       "lat": 29.9792351,
       "lng": 32.5142903,
       "cityId": 17,
       "cityTitleEn": "Suez",
       "cityTitleAr": "السويس",
       "branchId": null,
       "deliveryZoneId": null,
       "__typename": "CountryAreas"
     },
     {
       "id": "25",
       "titleEn": "Ta'wenyat El Bahr El Ahmar (Suez) (Suez)",
       "titleAr": "تعاونيات البحر الاحمر (السويس)",
       "lat": 29.9919143,
       "lng": 32.5068636,
       "cityId": 17,
       "cityTitleEn": "Suez",
       "cityTitleAr": "السويس",
       "branchId": null,
       "deliveryZoneId": null,
       "__typename": "CountryAreas"
     },
     {
       "id": "26",
       "titleEn": "Al Haweis (Suez) (Suez)",
       "titleAr": "الهويس (السويس)",
       "lat": 29.9769722,
       "lng": 32.5726239,
       "cityId": 17,
       "cityTitleEn": "Suez",
       "cityTitleAr": "السويس",
       "branchId": null,
       "deliveryZoneId": null,
       "__typename": "CountryAreas"
     },
     {
       "id": "27",
       "titleEn": "El Awayad (Suez) (Suez)",
       "titleAr": "العوايد (السويس)",
       "lat": 29.9875028,
       "lng": 32.5287777,
       "cityId": 17,
       "cityTitleEn": "Suez",
       "cityTitleAr": "السويس",
       "branchId": null,
       "deliveryZoneId": null,
       "__typename": "CountryAreas"
     },
     {
       "id": "28",
       "titleEn": "Sidi AlGhareib Mosque (Suez) (Suez)",
       "titleAr": "مسجد سيدي الغريب (السويس)",
       "lat": 29.9662926,
       "lng": 32.5591647,
       "cityId": 17,
       "cityTitleEn": "Suez",
       "cityTitleAr": "السويس",
       "branchId": null,
       "deliveryZoneId": null,
       "__typename": "CountryAreas"
     },
     {
       "id": "29",
       "titleEn": "Sharea' El Masoura (Suez) (Suez)",
       "titleAr": "شارع الماسوره (السويس)",
       "lat": 29.9679136,
       "lng": 32.5071736,
       "cityId": 17,
       "cityTitleEn": "Suez",
       "cityTitleAr": "السويس",
       "branchId": null,
       "deliveryZoneId": null,
       "__typename": "CountryAreas"
     },
     {
       "id": "30",
       "titleEn": "Ta'wenyat El Qahra (Suez) (Suez)",
       "titleAr": "تعاونيات القاهره (السويس)",
       "lat": 29.988439,
       "lng": 32.505449,
       "cityId": 17,
       "cityTitleEn": "Suez",
       "cityTitleAr": "السويس",
       "branchId": null,
       "deliveryZoneId": null,
       "__typename": "CountryAreas"
     },
     {
       "id": "31",
       "titleEn": "Sharea' El Souq (Suez) (Suez)",
       "titleAr": "شارع السوق (السويس)",
       "lat": 29.9668343,
       "lng": 32.5498069,
       "cityId": 17,
       "cityTitleEn": "Suez",
       "cityTitleAr": "السويس",
       "branchId": null,
       "deliveryZoneId": null,
       "__typename": "CountryAreas"
     },
     {
       "id": "32",
       "titleEn": "Al Heisha (Suez) (Suez)",
       "titleAr": "الهيشه (السويس)",
       "lat": 29.9829792,
       "lng": 32.556718,
       "cityId": 17,
       "cityTitleEn": "Suez",
       "cityTitleAr": "السويس",
       "branchId": null,
       "deliveryZoneId": null,
       "__typename": "CountryAreas"
     },
     {
       "id": "33",
       "titleEn": "24 October (Suez) (Suez)",
       "titleAr": "24 أكتوبر (السويس)",
       "lat": 29.973015,
       "lng": 32.5184454,
       "cityId": 17,
       "cityTitleEn": "Suez",
       "cityTitleAr": "السويس",
       "branchId": null,
       "deliveryZoneId": null,
       "__typename": "CountryAreas"
     },
     {
       "id": "34",
       "titleEn": "Manshit El Regolla (Suez) (Suez)",
       "titleAr": "منشيه الرجوله (السويس)",
       "lat": 30.0215404,
       "lng": 32.5697964,
       "cityId": 17,
       "cityTitleEn": "Suez",
       "cityTitleAr": "السويس",
       "branchId": null,
       "deliveryZoneId": null,
       "__typename": "CountryAreas"
     },
     {
       "id": "35",
       "titleEn": "Arab El Dabour (Suez) (Suez)",
       "titleAr": "عرب الدبور (السويس)",
       "lat": 29.963598,
       "lng": 32.4927162,
       "cityId": 17,
       "cityTitleEn": "Suez",
       "cityTitleAr": "السويس",
       "branchId": null,
       "deliveryZoneId": null,
       "__typename": "CountryAreas"
     },
     {
       "id": "36",
       "titleEn": "Al Salam 2 (Suez) (Suez)",
       "titleAr": "السلام 2 (السويس)",
       "lat": 29.9951305,
       "lng": 32.4835193,
       "cityId": 17,
       "cityTitleEn": "Suez",
       "cityTitleAr": "السويس",
       "branchId": null,
       "deliveryZoneId": null,
       "__typename": "CountryAreas"
     },
     {
       "id": "37",
       "titleEn": "Shabab El Mosalas (Suez) (Suez)",
       "titleAr": "شباب المثلث (السويس)",
       "lat": 29.9831206,
       "lng": 32.5305563,
       "cityId": 17,
       "cityTitleEn": "Suez",
       "cityTitleAr": "السويس",
       "branchId": null,
       "deliveryZoneId": null,
       "__typename": "CountryAreas"
     },
     {
       "id": "38",
       "titleEn": "Shell Compound (Suez) (Suez)",
       "titleAr": "شل كومبوند (السويس)",
       "lat": 29.9756099,
       "lng": 32.5268436,
       "cityId": 17,
       "cityTitleEn": "Suez",
       "cityTitleAr": "السويس",
       "branchId": null,
       "deliveryZoneId": null,
       "__typename": "CountryAreas"
     },
     {
       "id": "39",
       "titleEn": "Al Mostaqbal 1 (Suez) (Suez)",
       "titleAr": "المستقبل 1 (السويس)",
       "lat": 29.9975759,
       "lng": 32.5096929,
       "cityId": 17,
       "cityTitleEn": "Suez",
       "cityTitleAr": "السويس",
       "branchId": null,
       "deliveryZoneId": null,
       "__typename": "CountryAreas"
     },
     {
       "id": "40",
       "titleEn": "El Sayed Hashim (Suez) (Suez)",
       "titleAr": "السيد هاشم (السويس)",
       "lat": 29.9853022,
       "lng": 32.555304,
       "cityId": 17,
       "cityTitleEn": "Suez",
       "cityTitleAr": "السويس",
       "branchId": null,
       "deliveryZoneId": null,
       "__typename": "CountryAreas"
     },
     {
       "id": "41",
       "titleEn": "Corniche - Suez Stadium (Suez) (Suez)",
       "titleAr": "الكورنيش - ستاد السويس (السويس)",
       "lat": 29.9575826,
       "lng": 32.5439672,
       "cityId": 17,
       "cityTitleEn": "Suez",
       "cityTitleAr": "السويس",
       "branchId": null,
       "deliveryZoneId": null,
       "__typename": "CountryAreas"
     },
     {
       "id": "42",
       "titleEn": "Kasr Thakafet AlSuez (Suez) (Suez)",
       "titleAr": "قصر ثقافة السويس (السويس)",
       "lat": 29.9634452,
       "lng": 32.5490292,
       "cityId": 17,
       "cityTitleEn": "Suez",
       "cityTitleAr": "السويس",
       "branchId": null,
       "deliveryZoneId": null,
       "__typename": "CountryAreas"
     },
     {
       "id": "43",
       "titleEn": "Downtown - Talaat Harab (Cairo) (Cairo)",
       "titleAr": "وسط البلد - طلعت حرب (القاهرة)",
       "lat": 30.048682,
       "lng": 31.2393259,
       "cityId": 1,
       "cityTitleEn": "Cairo",
       "cityTitleAr": "القاهرة",
       "branchId": null,
       "deliveryZoneId": null,
       "__typename": "CountryAreas"
     },
     {
       "id": "44",
       "titleEn": "Nasr City - Hay 8 (Cairo) (Cairo)",
       "titleAr": "مدينة نصر - الحي الثامن (القاهرة)",
       "lat": 30.0595267,
       "lng": 31.3581131,
       "cityId": 1,
       "cityTitleEn": "Cairo",
       "cityTitleAr": "القاهرة",
       "branchId": null,
       "deliveryZoneId": null,
       "__typename": "CountryAreas"
     },
     {
       "id": "45",
       "titleEn": "Heliopolis - Mahkama Square (Cairo) (Cairo)",
       "titleAr": "مصر الجديدة - ميدان المحكمة (القاهرة)",
       "lat": 30.1035711,
       "lng": 31.3304818,
       "cityId": 1,
       "cityTitleEn": "Cairo",
       "cityTitleAr": "القاهرة",
       "branchId": null,
       "deliveryZoneId": null,
       "__typename": "CountryAreas"
     },
     {
       "id": "46",
       "titleEn": "Dokki (Cairo) (Cairo)",
       "titleAr": "الدقي (القاهرة)",
       "lat": 30.0382232,
       "lng": 31.2114114,
       "cityId": 1,
       "cityTitleEn": "Cairo",
       "cityTitleAr": "القاهرة",
       "branchId": null,
       "deliveryZoneId": null,
       "__typename": "CountryAreas"
     },
     {
       "id": "47",
       "titleEn": "Heliopolis - Triumph Square (Cairo) (Cairo)",
       "titleAr": "مصر الجديدة - ميدان تريومف (القاهرة)",
       "lat": 30.1004208,
       "lng": 31.3429049,
       "cityId": 1,
       "cityTitleEn": "Cairo",
       "cityTitleAr": "القاهرة",
       "branchId": null,
       "deliveryZoneId": null,
       "__typename": "CountryAreas"
     },
     {
       "id": "48",
       "titleEn": "Haram - Nazlet El Semman (Cairo) (Cairo)",
       "titleAr": "الهرم - نزله السمان (القاهرة)",
       "lat": 29.9865389,
       "lng": 31.1408456,
       "cityId": 1,
       "cityTitleEn": "Cairo",
       "cityTitleAr": "القاهرة",
       "branchId": null,
       "deliveryZoneId": null,
       "__typename": "CountryAreas"
     },
     {
       "id": "49",
       "titleEn": "Downtown - El Gomhorya (Cairo) (Cairo)",
       "titleAr": "وسط البلد - الجمهورية (القاهرة)",
       "lat": 30.0527637,
       "lng": 31.2468241,
       "cityId": 1,
       "cityTitleEn": "Cairo",
       "cityTitleAr": "القاهرة",
       "branchId": null,
       "deliveryZoneId": null,
       "__typename": "CountryAreas"
     },
     {
       "id": "50",
       "titleEn": "Tagammoa 5 - Yasmeen and Banafseg (Cairo) (Cairo)",
       "titleAr": "التجمع الخامس - الياسمين و البنفسج (القاهرة)",
       "lat": 30.0439752,
       "lng": 31.4513314,
       "cityId": 1,
       "cityTitleEn": "Cairo",
       "cityTitleAr": "القاهرة",
       "branchId": null,
       "deliveryZoneId": null,
       "__typename": "CountryAreas"
     },
     {
       "id": "51",
       "titleEn": "Haram - Mansoureya (Cairo) (Cairo)",
       "titleAr": "الهرم - المنصوريه (القاهرة)",
       "lat": 29.9772962,
       "lng": 31.1324955,
       "cityId": 1,
       "cityTitleEn": "Cairo",
       "cityTitleAr": "القاهرة",
       "branchId": null,
       "deliveryZoneId": null,
       "__typename": "CountryAreas"
     },
     {
       "id": "52",
       "titleEn": "Nasr City - El Mante'aa El Horra (Cairo) (Cairo)",
       "titleAr": "مدينة نصر - المنطقة الحرة (القاهرة)",
       "lat": 30.030752,
       "lng": 31.3470408,
       "cityId": 1,
       "cityTitleEn": "Cairo",
       "cityTitleAr": "القاهرة",
       "branchId": null,
       "deliveryZoneId": null,
       "__typename": "CountryAreas"
     },
     {
       "id": "53",
       "titleEn": "Abou Rawash (Cairo) (Cairo)",
       "titleAr": "أبو رواش (القاهرة)",
       "lat": 30.0450472,
       "lng": 31.0950125,
       "cityId": 1,
       "cityTitleEn": "Cairo",
       "cityTitleAr": "القاهرة",
       "branchId": null,
       "deliveryZoneId": null,
       "__typename": "CountryAreas"
     },
     {
       "id": "54",
       "titleEn": "Nasr City - Zaker Huessein (Cairo) (Cairo)",
       "titleAr": "مدينة نصر - ذاكر حسين (القاهرة)",
       "lat": 30.0440783,
       "lng": 31.3345988,
       "cityId": 1,
       "cityTitleEn": "Cairo",
       "cityTitleAr": "القاهرة",
       "branchId": null,
       "deliveryZoneId": null,
       "__typename": "CountryAreas"
     },
     {
       "id": "55",
       "titleEn": "Mokattam (Cairo) (Cairo)",
       "titleAr": "المقطم (القاهرة)",
       "lat": 30.0444196,
       "lng": 31.2357116,
       "cityId": 1,
       "cityTitleEn": "Cairo",
       "cityTitleAr": "القاهرة",
       "branchId": null,
       "deliveryZoneId": null,
       "__typename": "CountryAreas"
     },
     {
       "id": "56",
       "titleEn": "Nasr City - Masaken El Shorouk (Cairo) (Cairo)",
       "titleAr": "مدينة نصر - مساكن الشروق (القاهرة)",
       "lat": 30.0682104,
       "lng": 31.3602231,
       "cityId": 1,
       "cityTitleEn": "Cairo",
       "cityTitleAr": "القاهرة",
       "branchId": null,
       "deliveryZoneId": null,
       "__typename": "CountryAreas"
     },
     {
       "id": "57",
       "titleEn": "Nasr City - Hay 10 (Cairo) (Cairo)",
       "titleAr": "مدينة نصر - الحي العاشر (القاهرة)",
       "lat": 30.0242628,
       "lng": 31.3884671,
       "cityId": 1,
       "cityTitleEn": "Cairo",
       "cityTitleAr": "القاهرة",
       "branchId": null,
       "deliveryZoneId": null,
       "__typename": "CountryAreas"
     },
     {
       "id": "58",
       "titleEn": "Haram - Mohafzet El Giza (Cairo) (Cairo)",
       "titleAr": "الهرم - محافظه الجيزه (القاهرة)",
       "lat": 29.9999911,
       "lng": 31.1761242,
       "cityId": 1,
       "cityTitleEn": "Cairo",
       "cityTitleAr": "القاهرة",
       "branchId": null,
       "deliveryZoneId": null,
       "__typename": "CountryAreas"
     },
     {
       "id": "59",
       "titleEn": "Nasr City - Genena Mall (Cairo) (Cairo)",
       "titleAr": "مدينة نصر - جنينة مول (القاهرة)",
       "lat": 30.0611596,
       "lng": 31.3320244,
       "cityId": 1,
       "cityTitleEn": "Cairo",
       "cityTitleAr": "القاهرة",
       "branchId": null,
       "deliveryZoneId": null,
       "__typename": "CountryAreas"
     },
     {
       "id": "60",
       "titleEn": "Kobry El Qobba (Cairo) (Cairo)",
       "titleAr": "كوبري القبة (القاهرة)",
       "lat": 30.0869809,
       "lng": 31.2918834,
       "cityId": 1,
       "cityTitleEn": "Cairo",
       "cityTitleAr": "القاهرة",
       "branchId": null,
       "deliveryZoneId": null,
       "__typename": "CountryAreas"
     },
     {
       "id": "61",
       "titleEn": "Shobra El Kheima (Cairo) (Cairo)",
       "titleAr": "شبرا الخيمة (القاهرة)",
       "lat": 30.0444196,
       "lng": 31.2357116,
       "cityId": 1,
       "cityTitleEn": "Cairo",
       "cityTitleAr": "القاهرة",
       "branchId": null,
       "deliveryZoneId": null,
       "__typename": "CountryAreas"
     },
     {
       "id": "62",
       "titleEn": "Abbasiya (Cairo) (Cairo)",
       "titleAr": "العباسية (القاهرة)",
       "lat": 30.0650075,
       "lng": 31.2714452,
       "cityId": 1,
       "cityTitleEn": "Cairo",
       "cityTitleAr": "القاهرة",
       "branchId": null,
       "deliveryZoneId": null,
       "__typename": "CountryAreas"
     },
     {
       "id": "63",
       "titleEn": "Downtown - Ramsis (Cairo) (Cairo)",
       "titleAr": "وسط البلد - رمسيس (القاهرة)",
       "lat": 30.0520618,
       "lng": 31.2361432,
       "cityId": 1,
       "cityTitleEn": "Cairo",
       "cityTitleAr": "القاهرة",
       "branchId": null,
       "deliveryZoneId": null,
       "__typename": "CountryAreas"
     },
     {
       "id": "64",
       "titleEn": "Maadi - New (Cairo) (Cairo)",
       "titleAr": "المعادي الجديدة (القاهرة)",
       "lat": 29.9601561,
       "lng": 31.2569138,
       "cityId": 1,
       "cityTitleEn": "Cairo",
       "cityTitleAr": "القاهرة",
       "branchId": null,
       "deliveryZoneId": null,
       "__typename": "CountryAreas"
     },
     {
       "id": "65",
       "titleEn": "Tagammoa 1 (Cairo) (Cairo)",
       "titleAr": "التجمع الأول (القاهرة)",
       "lat": 30.0084868,
       "lng": 31.4284756,
       "cityId": 1,
       "cityTitleEn": "Cairo",
       "cityTitleAr": "القاهرة",
       "branchId": null,
       "deliveryZoneId": null,
       "__typename": "CountryAreas"
     },
     {
       "id": "66",
       "titleEn": "Nasr City - Makram Ebeid (Cairo) (Cairo)",
       "titleAr": "مدينة نصر - مكرم عبيد (القاهرة)",
       "lat": 30.0619747,
       "lng": 31.3449854,
       "cityId": 1,
       "cityTitleEn": "Cairo",
       "cityTitleAr": "القاهرة",
       "branchId": null,
       "deliveryZoneId": null,
       "__typename": "CountryAreas"
     },
     {
       "id": "67",
       "titleEn": "Heliopolis - Heliopolis Square (Cairo) (Cairo)",
       "titleAr": "مصر الجديدة - ميدان هليوبوليس (القاهرة)",
       "lat": 30.1080936,
       "lng": 31.3382408,
       "cityId": 1,
       "cityTitleEn": "Cairo",
       "cityTitleAr": "القاهرة",
       "branchId": null,
       "deliveryZoneId": null,
       "__typename": "CountryAreas"
     },
     {
       "id": "68",
       "titleEn": "6th of October - Hosary and Ahyaa' (Cairo) (Cairo)",
       "titleAr": "السادس من اكتوبر - الحُصري و الاحياء (القاهرة)",
       "lat": 29.9285429,
       "lng": 30.9187827,
       "cityId": 1,
       "cityTitleEn": "Cairo",
       "cityTitleAr": "القاهرة",
       "branchId": null,
       "deliveryZoneId": null,
       "__typename": "CountryAreas"
     },
     {
       "id": "69",
       "titleEn": "Hadayek El Qobba (Cairo) (Cairo)",
       "titleAr": "حدائق القبة (القاهرة)",
       "lat": 30.0820986,
       "lng": 31.2762631,
       "cityId": 1,
       "cityTitleEn": "Cairo",
       "cityTitleAr": "القاهرة",
       "branchId": null,
       "deliveryZoneId": null,
       "__typename": "CountryAreas"
     },
     {
       "id": "70",
       "titleEn": "Garden City (Cairo) (Cairo)",
       "titleAr": "جاردن سيتي (القاهرة)",
       "lat": 30.0380584,
       "lng": 31.2325889,
       "cityId": 1,
       "cityTitleEn": "Cairo",
       "cityTitleAr": "القاهرة",
       "branchId": null,
       "deliveryZoneId": null,
       "__typename": "CountryAreas"
     },
     {
       "id": "71",
       "titleEn": "Tagammoa 5 - South Investors Area (Cairo) (Cairo)",
       "titleAr": "التجمع الخامس - المستثمرين الجنوبية (القاهرة)",
       "lat": 30.0141197,
       "lng": 31.4856066,
       "cityId": 1,
       "cityTitleEn": "Cairo",
       "cityTitleAr": "القاهرة",
       "branchId": null,
       "deliveryZoneId": null,
       "__typename": "CountryAreas"
     },
     {
       "id": "72",
       "titleEn": "El Sheikh Zayed (Cairo) (Cairo)",
       "titleAr": "الشيخ زايد (القاهرة)",
       "lat": 30.0491629,
       "lng": 30.9761599,
       "cityId": 1,
       "cityTitleEn": "Cairo",
       "cityTitleAr": "القاهرة",
       "branchId": null,
       "deliveryZoneId": null,
       "__typename": "CountryAreas"
     },
     {
       "id": "73",
       "titleEn": "El Shorouk City (Cairo) (Cairo)",
       "titleAr": "مدينة الشروق (القاهرة)",
       "lat": 30.1418839,
       "lng": 31.6285105,
       "cityId": 1,
       "cityTitleEn": "Cairo",
       "cityTitleAr": "القاهرة",
       "branchId": null,
       "deliveryZoneId": null,
       "__typename": "CountryAreas"
     },
     {
       "id": "74",
       "titleEn": "Downtown - Abdin (Cairo) (Cairo)",
       "titleAr": "وسط البلد - عابدين (القاهرة)",
       "lat": 30.0467142,
       "lng": 31.2347129,
       "cityId": 1,
       "cityTitleEn": "Cairo",
       "cityTitleAr": "القاهرة",
       "branchId": null,
       "deliveryZoneId": null,
       "__typename": "CountryAreas"
     },
     {
       "id": "75",
       "titleEn": "6th of October - Wahat Road (Cairo) (Cairo)",
       "titleAr": "السادس من اكتوبر - طريق الواحات (القاهرة)",
       "lat": 29.8910986,
       "lng": 30.8874947,
       "cityId": 1,
       "cityTitleEn": "Cairo",
       "cityTitleAr": "القاهرة",
       "branchId": null,
       "deliveryZoneId": null,
       "__typename": "CountryAreas"
     },
     {
       "id": "76",
       "titleEn": "Nasr City - El Tayaran (Cairo) (Cairo)",
       "titleAr": "مدينة نصر - الطيران (القاهرة)",
       "lat": 30.0674075,
       "lng": 31.3246564,
       "cityId": 1,
       "cityTitleEn": "Cairo",
       "cityTitleAr": "القاهرة",
       "branchId": null,
       "deliveryZoneId": null,
       "__typename": "CountryAreas"
     },
     {
       "id": "77",
       "titleEn": "Nasr City - Mostafa El Nahaas (Cairo) (Cairo)",
       "titleAr": "مدينة نصر - مصطفى النحاس (القاهرة)",
       "lat": 30.0542151,
       "lng": 31.3440607,
       "cityId": 1,
       "cityTitleEn": "Cairo",
       "cityTitleAr": "القاهرة",
       "branchId": null,
       "deliveryZoneId": null,
       "__typename": "CountryAreas"
     },
     {
       "id": "78",
       "titleEn": "Heliopolis - El Sabaa Omarat (Cairo) (Cairo)",
       "titleAr": "مصر الجديدة - السبع عمارات (القاهرة)",
       "lat": 30.0896667,
       "lng": 31.3419208,
       "cityId": 1,
       "cityTitleEn": "Cairo",
       "cityTitleAr": "القاهرة",
       "branchId": null,
       "deliveryZoneId": null,
       "__typename": "CountryAreas"
     },
     {
       "id": "79",
       "titleEn": "Cairo Airport (Cairo) (Cairo)",
       "titleAr": "مطار القاهرة (القاهرة)",
       "lat": 30.1127193,
       "lng": 31.3998532,
       "cityId": 1,
       "cityTitleEn": "Cairo",
       "cityTitleAr": "القاهرة",
       "branchId": null,
       "deliveryZoneId": null,
       "__typename": "CountryAreas"
     },
     {
       "id": "80",
       "titleEn": "Almazah (Cairo)",
       "titleAr": "الماظة",
       "lat": 30.0894059,
       "lng": 31.324609,
       "cityId": 1,
       "cityTitleEn": "Cairo",
       "cityTitleAr": "القاهرة",
       "branchId": null,
       "deliveryZoneId": null,
       "__typename": "CountryAreas"
     },
     {
       "id": "81",
       "titleEn": "Nasr City - Abo Dawoud El Zahery (Cairo) (Cairo)",
       "titleAr": "مدينة نصر - ابو داود الظاهري (القاهرة)",
       "lat": 30.0615022,
       "lng": 31.3574676,
       "cityId": 1,
       "cityTitleEn": "Cairo",
       "cityTitleAr": "القاهرة",
       "branchId": null,
       "deliveryZoneId": null,
       "__typename": "CountryAreas"
     },
     {
       "id": "82",
       "titleEn": "Heliopolis - Hegaz Square (Cairo) (Cairo)",
       "titleAr": "مصر الجديدة - ميدان الحجاز (القاهرة)",
       "lat": 30.106662,
       "lng": 31.335382,
       "cityId": 1,
       "cityTitleEn": "Cairo",
       "cityTitleAr": "القاهرة",
       "branchId": null,
       "deliveryZoneId": null,
       "__typename": "CountryAreas"
     },
     {
       "id": "83",
       "titleEn": "Misr El Kadema (Cairo) (Cairo)",
       "titleAr": "مصر القديمة (القاهرة)",
       "lat": 30.0077797,
       "lng": 31.2340199,
       "cityId": 1,
       "cityTitleEn": "Cairo",
       "cityTitleAr": "القاهرة",
       "branchId": null,
       "deliveryZoneId": null,
       "__typename": "CountryAreas"
     },
     {
       "id": "84",
       "titleEn": "Nasr City - Youssef Abbas (Cairo) (Cairo)",
       "titleAr": "مدينة نصر - يوسف عباس (القاهرة)",
       "lat": 30.0663631,
       "lng": 31.3199722,
       "cityId": 1,
       "cityTitleEn": "Cairo",
       "cityTitleAr": "القاهرة",
       "branchId": null,
       "deliveryZoneId": null,
       "__typename": "CountryAreas"
     },
     {
       "id": "85",
       "titleEn": "Downtown - Esa'af (Cairo) (Cairo)",
       "titleAr": "وسط البلد - اسعاف (القاهرة)",
       "lat": 30.0536716,
       "lng": 31.2389193,
       "cityId": 1,
       "cityTitleEn": "Cairo",
       "cityTitleAr": "القاهرة",
       "branchId": null,
       "deliveryZoneId": null,
       "__typename": "CountryAreas"
     },
     {
       "id": "86",
       "titleEn": "Downtown - El Qalaa' (Cairo) (Cairo)",
       "titleAr": "وسط البلد - القلعة (القاهرة)",
       "lat": 30.0467142,
       "lng": 31.2347129,
       "cityId": 1,
       "cityTitleEn": "Cairo",
       "cityTitleAr": "القاهرة",
       "branchId": null,
       "deliveryZoneId": null,
       "__typename": "CountryAreas"
     },
     {
       "id": "87",
       "titleEn": "Nasr City - Omarat El Tawfiq (Cairo) (Cairo)",
       "titleAr": "مدينة نصر - عمارات التوفيق (القاهرة)",
       "lat": 30.0727173,
       "lng": 31.320564,
       "cityId": 1,
       "cityTitleEn": "Cairo",
       "cityTitleAr": "القاهرة",
       "branchId": null,
       "deliveryZoneId": null,
       "__typename": "CountryAreas"
     },
     {
       "id": "88",
       "titleEn": "Nasr City - El Wafaa W El Amal (Cairo) (Cairo)",
       "titleAr": "مدينة نصر - الوفاء و الأمل (القاهرة)",
       "lat": 30.0210896,
       "lng": 31.351304,
       "cityId": 1,
       "cityTitleEn": "Cairo",
       "cityTitleAr": "القاهرة",
       "branchId": null,
       "deliveryZoneId": null,
       "__typename": "CountryAreas"
     },
     {
       "id": "89",
       "titleEn": "El Zeitoun (Cairo) (Cairo)",
       "titleAr": "الزيتون (القاهرة)",
       "lat": 30.1074263,
       "lng": 31.3156691,
       "cityId": 1,
       "cityTitleEn": "Cairo",
       "cityTitleAr": "القاهرة",
       "branchId": null,
       "deliveryZoneId": null,
       "__typename": "CountryAreas"
     },
     {
       "id": "90",
       "titleEn": "Haram - Tarbeya Riyadia (Cairo) (Cairo)",
       "titleAr": "الهرم - تربيه رياضيه (القاهرة)",
       "lat": 30.0081812,
       "lng": 31.1903662,
       "cityId": 1,
       "cityTitleEn": "Cairo",
       "cityTitleAr": "القاهرة",
       "branchId": null,
       "deliveryZoneId": null,
       "__typename": "CountryAreas"
     },
     {
       "id": "91",
       "titleEn": "Downtown - Gamea' El Banat (Cairo) (Cairo)",
       "titleAr": "وسط البلد - جامع البنات (القاهرة)",
       "lat": 30.0467142,
       "lng": 31.2347129,
       "cityId": 1,
       "cityTitleEn": "Cairo",
       "cityTitleAr": "القاهرة",
       "branchId": null,
       "deliveryZoneId": null,
       "__typename": "CountryAreas"
     },
     {
       "id": "92",
       "titleEn": "Haram - Mash'aal (Cairo) (Cairo)",
       "titleAr": "الهرم - مشعل (القاهرة)",
       "lat": 29.9874559,
       "lng": 31.1425757,
       "cityId": 1,
       "cityTitleEn": "Cairo",
       "cityTitleAr": "القاهرة",
       "branchId": null,
       "deliveryZoneId": null,
       "__typename": "CountryAreas"
     },
     {
       "id": "93",
       "titleEn": "Haram - Omraniya (Cairo) (Cairo)",
       "titleAr": "الهرم - العمرانية (القاهرة)",
       "lat": 30.0155504,
       "lng": 31.2152881,
       "cityId": 1,
       "cityTitleEn": "Cairo",
       "cityTitleAr": "القاهرة",
       "branchId": null,
       "deliveryZoneId": null,
       "__typename": "CountryAreas"
     },
     {
       "id": "94",
       "titleEn": "Masaken Sheraton (Cairo) (Cairo)",
       "titleAr": "مساكن شيراتون (القاهرة)",
       "lat": 30.1052792,
       "lng": 31.3761385,
       "cityId": 1,
       "cityTitleEn": "Cairo",
       "cityTitleAr": "القاهرة",
       "branchId": null,
       "deliveryZoneId": null,
       "__typename": "CountryAreas"
     },
     {
       "id": "95",
       "titleEn": "Haram - El Ahram (Cairo) (Cairo)",
       "titleAr": "الهرم - الاهرام (القاهرة)",
       "lat": 30.0031703,
       "lng": 31.1728438,
       "cityId": 1,
       "cityTitleEn": "Cairo",
       "cityTitleAr": "القاهرة",
       "branchId": null,
       "deliveryZoneId": null,
       "__typename": "CountryAreas"
     },
     {
       "id": "96",
       "titleEn": "Heliopolis - Baron (Cairo) (Cairo)",
       "titleAr": "مصر الجديدة - البارون (القاهرة)",
       "lat": 30.0875194,
       "lng": 31.3310648,
       "cityId": 1,
       "cityTitleEn": "Cairo",
       "cityTitleAr": "القاهرة",
       "branchId": null,
       "deliveryZoneId": null,
       "__typename": "CountryAreas"
     },
     {
       "id": "97",
       "titleEn": "Heliopolis - Merryland (Cairo) (Cairo)",
       "titleAr": "مصر الجديدة - المريلاند (القاهرة)",
       "lat": 30.0979257,
       "lng": 31.3189812,
       "cityId": 1,
       "cityTitleEn": "Cairo",
       "cityTitleAr": "القاهرة",
       "branchId": null,
       "deliveryZoneId": null,
       "__typename": "CountryAreas"
     },
     {
       "id": "98",
       "titleEn": "Haram - El Remaya (Cairo) (Cairo)",
       "titleAr": "الهرم - الرمايه (القاهرة)",
       "lat": 30.0155504,
       "lng": 31.2152881,
       "cityId": 1,
       "cityTitleEn": "Cairo",
       "cityTitleAr": "القاهرة",
       "branchId": null,
       "deliveryZoneId": null,
       "__typename": "CountryAreas"
     },
     {
       "id": "99",
       "titleEn": "Nasr City - Azhar University (Cairo) (Cairo)",
       "titleAr": "مدينة نصر - جامعة الازهر (القاهرة)",
       "lat": 30.0561242,
       "lng": 31.3169891,
       "cityId": 1,
       "cityTitleEn": "Cairo",
       "cityTitleAr": "القاهرة",
       "branchId": null,
       "deliveryZoneId": null,
       "__typename": "CountryAreas"
     },
     {
       "id": "100",
       "titleEn": "Haram - Wimpy (Cairo) (Cairo)",
       "titleAr": "الهرم - ويمبي (القاهرة)",
       "lat": 30.0253616,
       "lng": 31.2340212,
       "cityId": 1,
       "cityTitleEn": "Cairo",
       "cityTitleAr": "القاهرة",
       "branchId": null,
       "deliveryZoneId": null,
       "__typename": "CountryAreas"
     },
     {
       "id": "101",
       "titleEn": "10th of Ramadan (Cairo) (Cairo)",
       "titleAr": "العاشر من رمضان (القاهرة)",
       "lat": 30.0939555,
       "lng": 31.2406444,
       "cityId": 1,
       "cityTitleEn": "Cairo",
       "cityTitleAr": "القاهرة",
       "branchId": null,
       "deliveryZoneId": null,
       "__typename": "CountryAreas"
     },
     {
       "id": "102",
       "titleEn": "Haram - Giza Hospital (Cairo) (Cairo)",
       "titleAr": "الهرم - مستشفي الجيزه (القاهرة)",
       "lat": 30.0044318,
       "lng": 31.187381,
       "cityId": 1,
       "cityTitleEn": "Cairo",
       "cityTitleAr": "القاهرة",
       "branchId": null,
       "deliveryZoneId": null,
       "__typename": "CountryAreas"
     },
     {
       "id": "103",
       "titleEn": "Tagammoa 3 (Cairo) (Cairo)",
       "titleAr": "التجمع الثالث (القاهرة)",
       "lat": 29.9800831,
       "lng": 31.4327614,
       "cityId": 1,
       "cityTitleEn": "Cairo",
       "cityTitleAr": "القاهرة",
       "branchId": null,
       "deliveryZoneId": null,
       "__typename": "CountryAreas"
     },
     {
       "id": "104",
       "titleEn": "Giza (Cairo) (Cairo)",
       "titleAr": "الجيزة (القاهرة)",
       "lat": 30.0444196,
       "lng": 31.2357116,
       "cityId": 1,
       "cityTitleEn": "Cairo",
       "cityTitleAr": "القاهرة",
       "branchId": null,
       "deliveryZoneId": null,
       "__typename": "CountryAreas"
     },
     {
       "id": "105",
       "titleEn": "Nasr City - Hay El Sefarat (Cairo) (Cairo)",
       "titleAr": "مدينة نصر - حي السفارات (القاهرة)",
       "lat": 30.03898,
       "lng": 31.3428364,
       "cityId": 1,
       "cityTitleEn": "Cairo",
       "cityTitleAr": "القاهرة",
       "branchId": null,
       "deliveryZoneId": null,
       "__typename": "CountryAreas"
     },
     {
       "id": "106",
       "titleEn": "Downtown - Magra El Ouyon (Cairo) (Cairo)",
       "titleAr": "وسط البلد - مجرى العيون (القاهرة)",
       "lat": 30.046938,
       "lng": 31.2403028,
       "cityId": 1,
       "cityTitleEn": "Cairo",
       "cityTitleAr": "القاهرة",
       "branchId": null,
       "deliveryZoneId": null,
       "__typename": "CountryAreas"
     },
     {
       "id": "107",
       "titleEn": "Heliopolis - Roxy (Cairo) (Cairo)",
       "titleAr": "مصر الجديدة - روكسي (القاهرة)",
       "lat": 30.092734,
       "lng": 31.315397,
       "cityId": 1,
       "cityTitleEn": "Cairo",
       "cityTitleAr": "القاهرة",
       "branchId": null,
       "deliveryZoneId": null,
       "__typename": "CountryAreas"
     },
     {
       "id": "108",
       "titleEn": "Downtown - Ahmed Helmy (Cairo) (Cairo)",
       "titleAr": "وسط البلد - احمد حلمي (القاهرة)",
       "lat": 30.0652264,
       "lng": 31.24762,
       "cityId": 1,
       "cityTitleEn": "Cairo",
       "cityTitleAr": "القاهرة",
       "branchId": null,
       "deliveryZoneId": null,
       "__typename": "CountryAreas"
     },
     {
       "id": "109",
       "titleEn": "Nasr City - Zahraa (Cairo) (Cairo)",
       "titleAr": "مدينة نصر - زهراء (القاهرة)",
       "lat": 30.0510049,
       "lng": 31.3995199,
       "cityId": 1,
       "cityTitleEn": "Cairo",
       "cityTitleAr": "القاهرة",
       "branchId": null,
       "deliveryZoneId": null,
       "__typename": "CountryAreas"
     },
     {
       "id": "110",
       "titleEn": "Downtown - Ard Ya'qoub (Cairo) (Cairo)",
       "titleAr": "وسط البلد - ارض يعقوب (القاهرة)",
       "lat": 30.0475781,
       "lng": 31.2336139,
       "cityId": 1,
       "cityTitleEn": "Cairo",
       "cityTitleAr": "القاهرة",
       "branchId": null,
       "deliveryZoneId": null,
       "__typename": "CountryAreas"
     },
     {
       "id": "111",
       "titleEn": "Tagammoa 5 - North Investors Area (Cairo) (Cairo)",
       "titleAr": "التجمع الخامس - المستثمرين الشمالية (القاهرة)",
       "lat": 30.0452655,
       "lng": 31.4856066,
       "cityId": 1,
       "cityTitleEn": "Cairo",
       "cityTitleAr": "القاهرة",
       "branchId": null,
       "deliveryZoneId": null,
       "__typename": "CountryAreas"
     },
     {
       "id": "112",
       "titleEn": "El Katameya (Cairo) (Cairo)",
       "titleAr": "القطامية (القاهرة)",
       "lat": 29.9787984,
       "lng": 31.4094819,
       "cityId": 1,
       "cityTitleEn": "Cairo",
       "cityTitleAr": "القاهرة",
       "branchId": null,
       "deliveryZoneId": null,
       "__typename": "CountryAreas"
     },
     {
       "id": "113",
       "titleEn": "Madinaty (Cairo) (Cairo)",
       "titleAr": "مدينتي (القاهرة)",
       "lat": 30.0956019,
       "lng": 31.6349305,
       "cityId": 1,
       "cityTitleEn": "Cairo",
       "cityTitleAr": "القاهرة",
       "branchId": null,
       "deliveryZoneId": null,
       "__typename": "CountryAreas"
     },
     {
       "id": "114",
       "titleEn": "Nasr City - El Masah (Cairo) (Cairo)",
       "titleAr": "مدينة نصر - الماسة (القاهرة)",
       "lat": 30.061499,
       "lng": 31.316455,
       "cityId": 1,
       "cityTitleEn": "Cairo",
       "cityTitleAr": "القاهرة",
       "branchId": null,
       "deliveryZoneId": null,
       "__typename": "CountryAreas"
     },
     {
       "id": "115",
       "titleEn": "Maadi - Corniche (Cairo) (Cairo)",
       "titleAr": "المعادي - كورنيش (القاهرة)",
       "lat": 29.961631,
       "lng": 31.2471624,
       "cityId": 1,
       "cityTitleEn": "Cairo",
       "cityTitleAr": "القاهرة",
       "branchId": null,
       "deliveryZoneId": null,
       "__typename": "CountryAreas"
     },
     {
       "id": "116",
       "titleEn": "Matareya (Cairo) (Cairo)",
       "titleAr": "المطرية (القاهرة)",
       "lat": 30.1312173,
       "lng": 31.3103292,
       "cityId": 1,
       "cityTitleEn": "Cairo",
       "cityTitleAr": "القاهرة",
       "branchId": null,
       "deliveryZoneId": null,
       "__typename": "CountryAreas"
     },
     {
       "id": "117",
       "titleEn": "Haram - Europe Hotel (Cairo) (Cairo)",
       "titleAr": "الهرم - فندق اوروبا (القاهرة)",
       "lat": 30.0006618,
       "lng": 31.1775325,
       "cityId": 1,
       "cityTitleEn": "Cairo",
       "cityTitleAr": "القاهرة",
       "branchId": null,
       "deliveryZoneId": null,
       "__typename": "CountryAreas"
     },
     {
       "id": "118",
       "titleEn": "Haram - El Arish (Cairo) (Cairo)",
       "titleAr": "الهرم - العريش (القاهرة)",
       "lat": 29.9940159,
       "lng": 31.1602517,
       "cityId": 1,
       "cityTitleEn": "Cairo",
       "cityTitleAr": "القاهرة",
       "branchId": null,
       "deliveryZoneId": null,
       "__typename": "CountryAreas"
     },
     {
       "id": "119",
       "titleEn": "Downtown - Ahmed Maher (Cairo) (Cairo)",
       "titleAr": "وسط البلد - احمد ماهر (القاهرة)",
       "lat": 30.0497782,
       "lng": 31.242262,
       "cityId": 1,
       "cityTitleEn": "Cairo",
       "cityTitleAr": "القاهرة",
       "branchId": null,
       "deliveryZoneId": null,
       "__typename": "CountryAreas"
     },
     {
       "id": "120",
       "titleEn": "Downtown - Qasr El Nile (Cairo) (Cairo)",
       "titleAr": "وسط البلد - قصر النيل (القاهرة)",
       "lat": 30.0467142,
       "lng": 31.2347129,
       "cityId": 1,
       "cityTitleEn": "Cairo",
       "cityTitleAr": "القاهرة",
       "branchId": null,
       "deliveryZoneId": null,
       "__typename": "CountryAreas"
     },
     {
       "id": "121",
       "titleEn": "Nasr City - Madinet El Waha (Cairo) (Cairo)",
       "titleAr": "مدينة نصر - مدينة الواحة (القاهرة)",
       "lat": 30.0375084,
       "lng": 31.3727457,
       "cityId": 1,
       "cityTitleEn": "Cairo",
       "cityTitleAr": "القاهرة",
       "branchId": null,
       "deliveryZoneId": null,
       "__typename": "CountryAreas"
     },
     {
       "id": "122",
       "titleEn": "Downtown - El Sayeda Zeinab (Cairo) (Cairo)",
       "titleAr": "وسط البلد - السيدة زينب (القاهرة)",
       "lat": 30.0467142,
       "lng": 31.2347129,
       "cityId": 1,
       "cityTitleEn": "Cairo",
       "cityTitleAr": "القاهرة",
       "branchId": null,
       "deliveryZoneId": null,
       "__typename": "CountryAreas"
     },
     {
       "id": "123",
       "titleEn": "Helwan (Cairo) (Cairo)",
       "titleAr": "حلوان (القاهرة)",
       "lat": 29.8402707,
       "lng": 31.2982121,
       "cityId": 1,
       "cityTitleEn": "Cairo",
       "cityTitleAr": "القاهرة",
       "branchId": null,
       "deliveryZoneId": null,
       "__typename": "CountryAreas"
     },
     {
       "id": "124",
       "titleEn": "Haram - El Ta'awun (Cairo) (Cairo)",
       "titleAr": "الهرم - التعاون (القاهرة)",
       "lat": 30.0155504,
       "lng": 31.2152881,
       "cityId": 1,
       "cityTitleEn": "Cairo",
       "cityTitleAr": "القاهرة",
       "branchId": null,
       "deliveryZoneId": null,
       "__typename": "CountryAreas"
     },
     {
       "id": "125",
       "titleEn": "Downtown - El Wekala (Cairo) (Cairo)",
       "titleAr": "وسط البلد - الوكالة (القاهرة)",
       "lat": 30.0484534,
       "lng": 31.2363249,
       "cityId": 1,
       "cityTitleEn": "Cairo",
       "cityTitleAr": "القاهرة",
       "branchId": null,
       "deliveryZoneId": null,
       "__typename": "CountryAreas"
     },
     {
       "id": "126",
       "titleEn": "Ard El Golf (Cairo) (Cairo)",
       "titleAr": "ارض الجولف (القاهرة)",
       "lat": 30.0790092,
       "lng": 31.3367213,
       "cityId": 1,
       "cityTitleEn": "Cairo",
       "cityTitleAr": "القاهرة",
       "branchId": null,
       "deliveryZoneId": null,
       "__typename": "CountryAreas"
     },
     {
       "id": "127",
       "titleEn": "Downtown - Boulaq Abu El Ela (Cairo) (Cairo)",
       "titleAr": "وسط البلد - بولاق ابو العلا (القاهرة)",
       "lat": 30.0555085,
       "lng": 31.2339739,
       "cityId": 1,
       "cityTitleEn": "Cairo",
       "cityTitleAr": "القاهرة",
       "branchId": null,
       "deliveryZoneId": null,
       "__typename": "CountryAreas"
     },
     {
       "id": "128",
       "titleEn": "Nasr City - Hay 7 (Cairo) (Cairo)",
       "titleAr": "مدينة نصر - الحي السابع (القاهرة)",
       "lat": 30.0469887,
       "lng": 31.3269987,
       "cityId": 1,
       "cityTitleEn": "Cairo",
       "cityTitleAr": "القاهرة",
       "branchId": null,
       "deliveryZoneId": null,
       "__typename": "CountryAreas"
     },
     {
       "id": "129",
       "titleEn": "Nasr City - Hassan El Ma'moun (Cairo) (Cairo)",
       "titleAr": "مدينة نصر - حسن المأمون (القاهرة)",
       "lat": 30.0636319,
       "lng": 31.3579935,
       "cityId": 1,
       "cityTitleEn": "Cairo",
       "cityTitleAr": "القاهرة",
       "branchId": null,
       "deliveryZoneId": null,
       "__typename": "CountryAreas"
     },
     {
       "id": "130",
       "titleEn": "15th of May City (Cairo) (Cairo)",
       "titleAr": "مدينة 15 مايو (القاهرة)",
       "lat": 29.8579396,
       "lng": 31.3884671,
       "cityId": 1,
       "cityTitleEn": "Cairo",
       "cityTitleAr": "القاهرة",
       "branchId": null,
       "deliveryZoneId": null,
       "__typename": "CountryAreas"
     },
     {
       "id": "131",
       "titleEn": "Nasr City - Cairo Stadium (Cairo) (Cairo)",
       "titleAr": "مدينة نصر - استاد القاهرة (القاهرة)",
       "lat": 30.0691259,
       "lng": 31.3124064,
       "cityId": 1,
       "cityTitleEn": "Cairo",
       "cityTitleAr": "القاهرة",
       "branchId": null,
       "deliveryZoneId": null,
       "__typename": "CountryAreas"
     },
     {
       "id": "132",
       "titleEn": "Nasr City - Abbas El Akkad (Cairo) (Cairo)",
       "titleAr": "مدينة نصر - عباس العقاد (القاهرة)",
       "lat": 30.0565078,
       "lng": 31.3378816,
       "cityId": 1,
       "cityTitleEn": "Cairo",
       "cityTitleAr": "القاهرة",
       "branchId": null,
       "deliveryZoneId": null,
       "__typename": "CountryAreas"
     },
     {
       "id": "133",
       "titleEn": "El Daher (Cairo) (Cairo)",
       "titleAr": "الضاهر (القاهرة)",
       "lat": 30.0654182,
       "lng": 31.2669285,
       "cityId": 1,
       "cityTitleEn": "Cairo",
       "cityTitleAr": "القاهرة",
       "branchId": null,
       "deliveryZoneId": null,
       "__typename": "CountryAreas"
     },
     {
       "id": "134",
       "titleEn": "Downtown - Qasr El Ainy (Cairo) (Cairo)",
       "titleAr": "وسط البلد - القصر العيني (القاهرة)",
       "lat": 30.0467142,
       "lng": 31.2347129,
       "cityId": 1,
       "cityTitleEn": "Cairo",
       "cityTitleAr": "القاهرة",
       "branchId": null,
       "deliveryZoneId": null,
       "__typename": "CountryAreas"
     },
     {
       "id": "135",
       "titleEn": "Downtown - Tahrir (Cairo) (Cairo)",
       "titleAr": "وسط البلد - التحرير (القاهرة)",
       "lat": 30.0445482,
       "lng": 31.2371189,
       "cityId": 1,
       "cityTitleEn": "Cairo",
       "cityTitleAr": "القاهرة",
       "branchId": null,
       "deliveryZoneId": null,
       "__typename": "CountryAreas"
     },
     {
       "id": "136",
       "titleEn": "Haram - El Orouba (Cairo) (Cairo)",
       "titleAr": "الهرم - العروبة (القاهرة)",
       "lat": 30.0155504,
       "lng": 31.2152881,
       "cityId": 1,
       "cityTitleEn": "Cairo",
       "cityTitleAr": "القاهرة",
       "branchId": null,
       "deliveryZoneId": null,
       "__typename": "CountryAreas"
     },
     {
       "id": "137",
       "titleEn": "Tagammoa 5 - El Narges (Cairo) (Cairo)",
       "titleAr": "التجمع الخامس - حي النرجس (القاهرة)",
       "lat": 30.0078269,
       "lng": 31.4482027,
       "cityId": 1,
       "cityTitleEn": "Cairo",
       "cityTitleAr": "القاهرة",
       "branchId": null,
       "deliveryZoneId": null,
       "__typename": "CountryAreas"
     },
     {
       "id": "138",
       "titleEn": "Heliopolis - Ismailia Square (Cairo) (Cairo)",
       "titleAr": "مصر الجديدة - ميدان اسماعيلية (القاهرة)",
       "lat": 30.0964808,
       "lng": 31.334483,
       "cityId": 1,
       "cityTitleEn": "Cairo",
       "cityTitleAr": "القاهرة",
       "branchId": null,
       "deliveryZoneId": null,
       "__typename": "CountryAreas"
     },
     {
       "id": "139",
       "titleEn": "Hadayek El Ahram (Cairo) (Cairo)",
       "titleAr": "حدائق الأهرام (القاهرة)",
       "lat": 29.9711917,
       "lng": 31.1013439,
       "cityId": 1,
       "cityTitleEn": "Cairo",
       "cityTitleAr": "القاهرة",
       "branchId": null,
       "deliveryZoneId": null,
       "__typename": "CountryAreas"
     },
     {
       "id": "140",
       "titleEn": "Pyramids Heights (Cairo) (Cairo)",
       "titleAr": "مرتفعات الأهرام (القاهرة)",
       "lat": 30.013687,
       "lng": 31.0706419,
       "cityId": 1,
       "cityTitleEn": "Cairo",
       "cityTitleAr": "القاهرة",
       "branchId": null,
       "deliveryZoneId": null,
       "__typename": "CountryAreas"
     },
     {
       "id": "141",
       "titleEn": "Haram - Tersa (Cairo) (Cairo)",
       "titleAr": "الهرم - ترسا (القاهرة)",
       "lat": 30.0155504,
       "lng": 31.2152881,
       "cityId": 1,
       "cityTitleEn": "Cairo",
       "cityTitleAr": "القاهرة",
       "branchId": null,
       "deliveryZoneId": null,
       "__typename": "CountryAreas"
     },
     {
       "id": "142",
       "titleEn": "Nasr City - El Hadeeqa El Dawlia (Cairo) (Cairo)",
       "titleAr": "مدينة نصر - الحديقة الدولية (القاهرة)",
       "lat": 30.0494138,
       "lng": 31.3365083,
       "cityId": 1,
       "cityTitleEn": "Cairo",
       "cityTitleAr": "القاهرة",
       "branchId": null,
       "deliveryZoneId": null,
       "__typename": "CountryAreas"
     },
     {
       "id": "143",
       "titleEn": "Haram - Talbiya (Cairo) (Cairo)",
       "titleAr": "الهرم - الطالبيه (القاهرة)",
       "lat": 30.0155504,
       "lng": 31.2152881,
       "cityId": 1,
       "cityTitleEn": "Cairo",
       "cityTitleAr": "القاهرة",
       "branchId": null,
       "deliveryZoneId": null,
       "__typename": "CountryAreas"
     },
     {
       "id": "144",
       "titleEn": "Nasr City - El Serag Mall (Cairo) (Cairo)",
       "titleAr": "مدينة نصر - السراج مول (القاهرة)",
       "lat": 30.051085,
       "lng": 31.3655989,
       "cityId": 1,
       "cityTitleEn": "Cairo",
       "cityTitleAr": "القاهرة",
       "branchId": null,
       "deliveryZoneId": null,
       "__typename": "CountryAreas"
     },
     {
       "id": "145",
       "titleEn": "Downtown - Magales El Sha'ab (Cairo) (Cairo)",
       "titleAr": "وسط البلد - مجلس الشعب (القاهرة)",
       "lat": 30.0386065,
       "lng": 31.241946,
       "cityId": 1,
       "cityTitleEn": "Cairo",
       "cityTitleAr": "القاهرة",
       "branchId": null,
       "deliveryZoneId": null,
       "__typename": "CountryAreas"
     },
     {
       "id": "146",
       "titleEn": "El Obour City (Cairo) (Cairo)",
       "titleAr": "مدينة العبور (القاهرة)",
       "lat": 30.2283408,
       "lng": 31.4798948,
       "cityId": 1,
       "cityTitleEn": "Cairo",
       "cityTitleAr": "القاهرة",
       "branchId": null,
       "deliveryZoneId": null,
       "__typename": "CountryAreas"
     },
     {
       "id": "147",
       "titleEn": "Haram - El Thalatheny (Cairo) (Cairo)",
       "titleAr": "الهرم - الثلاثيني (القاهرة)",
       "lat": 30.0155504,
       "lng": 31.2152881,
       "cityId": 1,
       "cityTitleEn": "Cairo",
       "cityTitleAr": "القاهرة",
       "branchId": null,
       "deliveryZoneId": null,
       "__typename": "CountryAreas"
     },
     {
       "id": "148",
       "titleEn": "New Nozha (Cairo) (Cairo)",
       "titleAr": "النزهة الجديدة (القاهرة)",
       "lat": 30.0345079,
       "lng": 31.2504802,
       "cityId": 1,
       "cityTitleEn": "Cairo",
       "cityTitleAr": "القاهرة",
       "branchId": null,
       "deliveryZoneId": null,
       "__typename": "CountryAreas"
     },
     {
       "id": "149",
       "titleEn": "Haram - Omraniya Gharbeya (Cairo) (Cairo)",
       "titleAr": "الهرم - العمرانية الغربية (القاهرة)",
       "lat": 30.0059702,
       "lng": 31.1924322,
       "cityId": 1,
       "cityTitleEn": "Cairo",
       "cityTitleAr": "القاهرة",
       "branchId": null,
       "deliveryZoneId": null,
       "__typename": "CountryAreas"
     },
     {
       "id": "150",
       "titleEn": "El Rehab City (Cairo) (Cairo)",
       "titleAr": "الرحاب (القاهرة)",
       "lat": 30.0660258,
       "lng": 31.4856066,
       "cityId": 1,
       "cityTitleEn": "Cairo",
       "cityTitleAr": "القاهرة",
       "branchId": null,
       "deliveryZoneId": null,
       "__typename": "CountryAreas"
     },
     {
       "id": "151",
       "titleEn": "6th of October - Industrial Section (Cairo) (Cairo)",
       "titleAr": "السادس من اكتوبر - المنطقة الصناعية (القاهرة)",
       "lat": 29.932767,
       "lng": 30.891901,
       "cityId": 1,
       "cityTitleEn": "Cairo",
       "cityTitleAr": "القاهرة",
       "branchId": null,
       "deliveryZoneId": null,
       "__typename": "CountryAreas"
     },
     {
       "id": "152",
       "titleEn": "Heliopolis - El Horreya (Cairo) (Cairo)",
       "titleAr": "مصر الجديدة - الحرية (القاهرة)",
       "lat": 30.0875916,
       "lng": 31.3420751,
       "cityId": 1,
       "cityTitleEn": "Cairo",
       "cityTitleAr": "القاهرة",
       "branchId": null,
       "deliveryZoneId": null,
       "__typename": "CountryAreas"
     },
     {
       "id": "153",
       "titleEn": "Downtown - Abu El Rish (Cairo) (Cairo)",
       "titleAr": "وسط البلد - ابو الريش (القاهرة)",
       "lat": 30.0298476,
       "lng": 31.234103,
       "cityId": 1,
       "cityTitleEn": "Cairo",
       "cityTitleAr": "القاهرة",
       "branchId": null,
       "deliveryZoneId": null,
       "__typename": "CountryAreas"
     },
     {
       "id": "154",
       "titleEn": "Downtown - Maspiro (Cairo) (Cairo)",
       "titleAr": "وسط البلد - ماسبيرو (القاهرة)",
       "lat": 30.0535932,
       "lng": 31.230979,
       "cityId": 1,
       "cityTitleEn": "Cairo",
       "cityTitleAr": "القاهرة",
       "branchId": null,
       "deliveryZoneId": null,
       "__typename": "CountryAreas"
     },
     {
       "id": "155",
       "titleEn": "Agouza (Cairo) (Cairo)",
       "titleAr": "العجوزة (القاهرة)",
       "lat": 30.0511223,
       "lng": 31.2125529,
       "cityId": 1,
       "cityTitleEn": "Cairo",
       "cityTitleAr": "القاهرة",
       "branchId": null,
       "deliveryZoneId": null,
       "__typename": "CountryAreas"
     },
     {
       "id": "156",
       "titleEn": "Smart Village (Cairo) (Cairo)",
       "titleAr": "القرية الذكية (القاهرة)",
       "lat": 30.067903,
       "lng": 31.020704,
       "cityId": 1,
       "cityTitleEn": "Cairo",
       "cityTitleAr": "القاهرة",
       "branchId": null,
       "deliveryZoneId": null,
       "__typename": "CountryAreas"
     },
     {
       "id": "157",
       "titleEn": "Nasr City - Ahmed Fakhry (Cairo) (Cairo)",
       "titleAr": "مدينة نصر - احمد فخري (القاهرة)",
       "lat": 30.0654653,
       "lng": 31.349032,
       "cityId": 1,
       "cityTitleEn": "Cairo",
       "cityTitleAr": "القاهرة",
       "branchId": null,
       "deliveryZoneId": null,
       "__typename": "CountryAreas"
     },
     {
       "id": "158",
       "titleEn": "Heliopolis - El Khalifa El Maa'moun (Cairo) (Cairo)",
       "titleAr": "مصر الجديدة - الخليفة المأمون (القاهرة)",
       "lat": 30.0863094,
       "lng": 31.2997267,
       "cityId": 1,
       "cityTitleEn": "Cairo",
       "cityTitleAr": "القاهرة",
       "branchId": null,
       "deliveryZoneId": null,
       "__typename": "CountryAreas"
     },
     {
       "id": "159",
       "titleEn": "Heliopolis - Maqreezi (Cairo) (Cairo)",
       "titleAr": "مصر الجديدة - المقريزي (القاهرة)",
       "lat": 30.0901039,
       "lng": 31.3050759,
       "cityId": 1,
       "cityTitleEn": "Cairo",
       "cityTitleAr": "القاهرة",
       "branchId": null,
       "deliveryZoneId": null,
       "__typename": "CountryAreas"
     },
     {
       "id": "160",
       "titleEn": "Ain Shams (Cairo) (Cairo)",
       "titleAr": "عين شمس (القاهرة)",
       "lat": 30.1279442,
       "lng": 31.3300184,
       "cityId": 1,
       "cityTitleEn": "Cairo",
       "cityTitleAr": "القاهرة",
       "branchId": null,
       "deliveryZoneId": null,
       "__typename": "CountryAreas"
     },
     {
       "id": "161",
       "titleEn": "Zamalek (Cairo) (Cairo)",
       "titleAr": "الزمالك (القاهرة)",
       "lat": 30.0609422,
       "lng": 31.219709,
       "cityId": 1,
       "cityTitleEn": "Cairo",
       "cityTitleAr": "القاهرة",
       "branchId": null,
       "deliveryZoneId": null,
       "__typename": "CountryAreas"
     },
     {
       "id": "162",
       "titleEn": "Faisal (Cairo) (Cairo)",
       "titleAr": "فيصل (القاهرة)",
       "lat": 30.0021682,
       "lng": 31.1694268,
       "cityId": 1,
       "cityTitleEn": "Cairo",
       "cityTitleAr": "القاهرة",
       "branchId": null,
       "deliveryZoneId": null,
       "__typename": "CountryAreas"
     },
     {
       "id": "163",
       "titleEn": "Tagammoa 5 - Ganoob El Academya (Cairo) (Cairo)",
       "titleAr": "التجمع الخامس - جنوب الاكاديمية (القاهرة)",
       "lat": 30.0250691,
       "lng": 31.4140994,
       "cityId": 1,
       "cityTitleEn": "Cairo",
       "cityTitleAr": "القاهرة",
       "branchId": null,
       "deliveryZoneId": null,
       "__typename": "CountryAreas"
     },
     {
       "id": "164",
       "titleEn": "Maadi Old (Cairo) (Cairo)",
       "titleAr": "المعادي القديمة (القاهرة)",
       "lat": 29.962448,
       "lng": 31.2581853,
       "cityId": 1,
       "cityTitleEn": "Cairo",
       "cityTitleAr": "القاهرة",
       "branchId": null,
       "deliveryZoneId": null,
       "__typename": "CountryAreas"
     },
     {
       "id": "165",
       "titleEn": "Tagammoa 5 - Districts and Golf (Cairo) (Cairo)",
       "titleAr": "التجمع الخامس - الاحياء و الجولف (القاهرة)",
       "lat": 30.0084868,
       "lng": 31.4284756,
       "cityId": 1,
       "cityTitleEn": "Cairo",
       "cityTitleAr": "القاهرة",
       "branchId": null,
       "deliveryZoneId": null,
       "__typename": "CountryAreas"
     },
     {
       "id": "166",
       "titleEn": "Maadi-Zahraa (Cairo) (Cairo)",
       "titleAr": "زهراء المعادي (القاهرة)",
       "lat": 29.9619405,
       "lng": 31.3038683,
       "cityId": 1,
       "cityTitleEn": "Cairo",
       "cityTitleAr": "القاهرة",
       "branchId": null,
       "deliveryZoneId": null,
       "__typename": "CountryAreas"
     },
     {
       "id": "167",
       "titleEn": "Shobra (Cairo) (Cairo)",
       "titleAr": "شبرا (القاهرة)",
       "lat": 30.085551,
       "lng": 31.2453488,
       "cityId": 1,
       "cityTitleEn": "Cairo",
       "cityTitleAr": "القاهرة",
       "branchId": null,
       "deliveryZoneId": null,
       "__typename": "CountryAreas"
     },
     {
       "id": "168",
       "titleEn": "Mohandiseen (Cairo) (Cairo)",
       "titleAr": "المهندسين (القاهرة)",
       "lat": 30.048004,
       "lng": 31.1996708,
       "cityId": 1,
       "cityTitleEn": "Cairo",
       "cityTitleAr": "القاهرة",
       "branchId": null,
       "deliveryZoneId": null,
       "__typename": "CountryAreas"
     },
     {
       "id": "169",
       "titleEn": "Heliopolis - Korba (Cairo) (Cairo)",
       "titleAr": "مصر الجديدة - الكوربة (القاهرة)",
       "lat": 30.112315,
       "lng": 31.3438507,
       "cityId": 1,
       "cityTitleEn": "Cairo",
       "cityTitleAr": "القاهرة",
       "branchId": null,
       "deliveryZoneId": null,
       "__typename": "CountryAreas"
     },
     {
       "id": "170",
       "titleEn": "Al Manial (Cairo) (Cairo)",
       "titleAr": "المنيل (القاهرة)",
       "lat": 30.0213609,
       "lng": 31.2268647,
       "cityId": 1,
       "cityTitleEn": "Cairo",
       "cityTitleAr": "القاهرة",
       "branchId": null,
       "deliveryZoneId": null,
       "__typename": "CountryAreas"
     },
     {
       "id": "171",
       "titleEn": "Al Warakah (Al Mahallah Al Kubra) (Al Mahallah Al Kubra)",
       "titleAr": "الوراقة (المحلة الكبرى)",
       "lat": 30.9715958,
       "lng": 31.1603001,
       "cityId": 3,
       "cityTitleEn": "Al Mahallah Al Kubra",
       "cityTitleAr": "المحلة الكبرى",
       "branchId": null,
       "deliveryZoneId": null,
       "__typename": "CountryAreas"
     },
     {
       "id": "172",
       "titleEn": "Moheb (Al Mahallah Al Kubra) (Al Mahallah Al Kubra)",
       "titleAr": "محب (المحلة الكبرى)",
       "lat": 30.9800936,
       "lng": 31.1696071,
       "cityId": 3,
       "cityTitleEn": "Al Mahallah Al Kubra",
       "cityTitleAr": "المحلة الكبرى",
       "branchId": null,
       "deliveryZoneId": null,
       "__typename": "CountryAreas"
     },
     {
       "id": "173",
       "titleEn": "El Seka El Wosta (Al Mahallah Al Kubra) (Al Mahallah Al Kubra)",
       "titleAr": "السكه الوسطى (المحلة الكبرى)",
       "lat": 30.9650714,
       "lng": 31.1525652,
       "cityId": 3,
       "cityTitleEn": "Al Mahallah Al Kubra",
       "cityTitleAr": "المحلة الكبرى",
       "branchId": null,
       "deliveryZoneId": null,
       "__typename": "CountryAreas"
     },
     {
       "id": "174",
       "titleEn": "El Ragaby (Al Mahallah Al Kubra) (Al Mahallah Al Kubra)",
       "titleAr": "الرجبي (المحلة الكبرى)",
       "lat": 30.9699864,
       "lng": 31.1778569,
       "cityId": 3,
       "cityTitleEn": "Al Mahallah Al Kubra",
       "cityTitleAr": "المحلة الكبرى",
       "branchId": null,
       "deliveryZoneId": null,
       "__typename": "CountryAreas"
     },
     {
       "id": "175",
       "titleEn": "Talaat Harb (Al Mahallah Al Kubra) (Al Mahallah Al Kubra)",
       "titleAr": "طلعت حرب (المحلة الكبرى)",
       "lat": 30.9568747,
       "lng": 31.1599301,
       "cityId": 3,
       "cityTitleEn": "Al Mahallah Al Kubra",
       "cityTitleAr": "المحلة الكبرى",
       "branchId": null,
       "deliveryZoneId": null,
       "__typename": "CountryAreas"
     },
     {
       "id": "176",
       "titleEn": "Medan El Bahlwan (Al Mahallah Al Kubra) (Al Mahallah Al Kubra)",
       "titleAr": "ميدان البهلوان (المحلة الكبرى)",
       "lat": 30.9713861,
       "lng": 31.1644551,
       "cityId": 3,
       "cityTitleEn": "Al Mahallah Al Kubra",
       "cityTitleAr": "المحلة الكبرى",
       "branchId": null,
       "deliveryZoneId": null,
       "__typename": "CountryAreas"
     },
     {
       "id": "177",
       "titleEn": "El Gaish (Al Mahallah Al Kubra) (Al Mahallah Al Kubra)",
       "titleAr": "الجيش (المحلة الكبرى)",
       "lat": 30.9766746,
       "lng": 31.1743062,
       "cityId": 3,
       "cityTitleEn": "Al Mahallah Al Kubra",
       "cityTitleAr": "المحلة الكبرى",
       "branchId": null,
       "deliveryZoneId": null,
       "__typename": "CountryAreas"
     },
     {
       "id": "178",
       "titleEn": "Ter'at Al Borg (Al Mahallah Al Kubra) (Al Mahallah Al Kubra)",
       "titleAr": "ترعة البرج (المحلة الكبرى)",
       "lat": 30.9696706,
       "lng": 31.168083,
       "cityId": 3,
       "cityTitleEn": "Al Mahallah Al Kubra",
       "cityTitleAr": "المحلة الكبرى",
       "branchId": null,
       "deliveryZoneId": null,
       "__typename": "CountryAreas"
     },
     {
       "id": "179",
       "titleEn": "El Bahr St (Al Mahallah Al Kubra) (Al Mahallah Al Kubra)",
       "titleAr": "شارع البحر (المحلة الكبرى)",
       "lat": 30.9748288,
       "lng": 31.1731179,
       "cityId": 3,
       "cityTitleEn": "Al Mahallah Al Kubra",
       "cityTitleAr": "المحلة الكبرى",
       "branchId": null,
       "deliveryZoneId": null,
       "__typename": "CountryAreas"
     },
     {
       "id": "180",
       "titleEn": "Al Mahallah Club (Al Mahallah Al Kubra) (Al Mahallah Al Kubra)",
       "titleAr": "نادى المحلة (المحلة الكبرى)",
       "lat": 30.9518588,
       "lng": 31.1706215,
       "cityId": 3,
       "cityTitleEn": "Al Mahallah Al Kubra",
       "cityTitleAr": "المحلة الكبرى",
       "branchId": null,
       "deliveryZoneId": null,
       "__typename": "CountryAreas"
     },
     {
       "id": "181",
       "titleEn": "El Sadat (Al Mahallah Al Kubra) (Al Mahallah Al Kubra)",
       "titleAr": "السادات (المحلة الكبرى)",
       "lat": 30.9543082,
       "lng": 31.1636469,
       "cityId": 3,
       "cityTitleEn": "Al Mahallah Al Kubra",
       "cityTitleAr": "المحلة الكبرى",
       "branchId": null,
       "deliveryZoneId": null,
       "__typename": "CountryAreas"
     },
     {
       "id": "182",
       "titleEn": "Industrial Area (Al Mahallah Al Kubra) (Al Mahallah Al Kubra)",
       "titleAr": "المنطقة الصناعية (المحلة الكبرى)",
       "lat": 30.9743429,
       "lng": 31.1524244,
       "cityId": 3,
       "cityTitleEn": "Al Mahallah Al Kubra",
       "cityTitleAr": "المحلة الكبرى",
       "branchId": null,
       "deliveryZoneId": null,
       "__typename": "CountryAreas"
     },
     {
       "id": "183",
       "titleEn": "Medan El Shoun (Al Mahallah Al Kubra) (Al Mahallah Al Kubra)",
       "titleAr": "ميدان الشون (المحلة الكبرى)",
       "lat": 30.964711,
       "lng": 31.1628377,
       "cityId": 3,
       "cityTitleEn": "Al Mahallah Al Kubra",
       "cityTitleAr": "المحلة الكبرى",
       "branchId": null,
       "deliveryZoneId": null,
       "__typename": "CountryAreas"
     },
     {
       "id": "184",
       "titleEn": "Saad Zaghloul (Al Mahallah Al Kubra) (Al Mahallah Al Kubra)",
       "titleAr": "سعد زغلول (المحلة الكبرى)",
       "lat": 30.9712582,
       "lng": 31.1859572,
       "cityId": 3,
       "cityTitleEn": "Al Mahallah Al Kubra",
       "cityTitleAr": "المحلة الكبرى",
       "branchId": null,
       "deliveryZoneId": null,
       "__typename": "CountryAreas"
     },
     {
       "id": "185",
       "titleEn": "Mahallat El Borg (Al Mahallah Al Kubra) (Al Mahallah Al Kubra)",
       "titleAr": "محلة البرج (المحلة الكبرى)",
       "lat": 30.9860254,
       "lng": 31.1667435,
       "cityId": 3,
       "cityTitleEn": "Al Mahallah Al Kubra",
       "cityTitleAr": "المحلة الكبرى",
       "branchId": null,
       "deliveryZoneId": null,
       "__typename": "CountryAreas"
     },
     {
       "id": "186",
       "titleEn": "Medan El Mahata (Al Mahallah Al Kubra) (Al Mahallah Al Kubra)",
       "titleAr": "ميدان المحطه (المحلة الكبرى)",
       "lat": 30.9694178,
       "lng": 31.1682003,
       "cityId": 3,
       "cityTitleEn": "Al Mahallah Al Kubra",
       "cityTitleAr": "المحلة الكبرى",
       "branchId": null,
       "deliveryZoneId": null,
       "__typename": "CountryAreas"
     },
     {
       "id": "187",
       "titleEn": "Abu Rady (Al Mahallah Al Kubra) (Al Mahallah Al Kubra)",
       "titleAr": "ابو راضي (المحلة الكبرى)",
       "lat": 30.9863154,
       "lng": 31.1753341,
       "cityId": 3,
       "cityTitleEn": "Al Mahallah Al Kubra",
       "cityTitleAr": "المحلة الكبرى",
       "branchId": null,
       "deliveryZoneId": null,
       "__typename": "CountryAreas"
     },
     {
       "id": "188",
       "titleEn": "El Nasr (Al Mahallah Al Kubra) (Al Mahallah Al Kubra)",
       "titleAr": "النصر (المحلة الكبرى)",
       "lat": 30.9810938,
       "lng": 31.1692861,
       "cityId": 3,
       "cityTitleEn": "Al Mahallah Al Kubra",
       "cityTitleAr": "المحلة الكبرى",
       "branchId": null,
       "deliveryZoneId": null,
       "__typename": "CountryAreas"
     },
     {
       "id": "189",
       "titleEn": "Ter'at Balkena (Al Mahallah Al Kubra) (Al Mahallah Al Kubra)",
       "titleAr": "ترعه بلقينا (المحلة الكبرى)",
       "lat": 30.9456215,
       "lng": 31.1329666,
       "cityId": 3,
       "cityTitleEn": "Al Mahallah Al Kubra",
       "cityTitleAr": "المحلة الكبرى",
       "branchId": null,
       "deliveryZoneId": null,
       "__typename": "CountryAreas"
     },
     {
       "id": "190",
       "titleEn": "El Sayed Rashwan El Oraby (Al Mahallah Al Kubra) (Al Mahallah Al Kubra)",
       "titleAr": "السيد رشوان العرابى (المحلة الكبرى)",
       "lat": 30.9850931,
       "lng": 31.154733,
       "cityId": 3,
       "cityTitleEn": "Al Mahallah Al Kubra",
       "cityTitleAr": "المحلة الكبرى",
       "branchId": null,
       "deliveryZoneId": null,
       "__typename": "CountryAreas"
     },
     {
       "id": "191",
       "titleEn": "Manshayt Khedr (Al Mahallah Al Kubra) (Al Mahallah Al Kubra)",
       "titleAr": "منشية خضر (المحلة الكبرى)",
       "lat": 30.9699383,
       "lng": 31.1495604,
       "cityId": 3,
       "cityTitleEn": "Al Mahallah Al Kubra",
       "cityTitleAr": "المحلة الكبرى",
       "branchId": null,
       "deliveryZoneId": null,
       "__typename": "CountryAreas"
     },
     {
       "id": "192",
       "titleEn": "Souk Al Laban (Al Mahallah Al Kubra) (Al Mahallah Al Kubra)",
       "titleAr": "سوق اللبن (المحلة الكبرى)",
       "lat": 30.9764546,
       "lng": 31.1638798,
       "cityId": 3,
       "cityTitleEn": "Al Mahallah Al Kubra",
       "cityTitleAr": "المحلة الكبرى",
       "branchId": null,
       "deliveryZoneId": null,
       "__typename": "CountryAreas"
     },
     {
       "id": "193",
       "titleEn": "Manshayt El Salam (Al Mahallah Al Kubra) (Al Mahallah Al Kubra)",
       "titleAr": "منشية السلام (المحلة الكبرى)",
       "lat": 30.9815496,
       "lng": 31.161732,
       "cityId": 3,
       "cityTitleEn": "Al Mahallah Al Kubra",
       "cityTitleAr": "المحلة الكبرى",
       "branchId": null,
       "deliveryZoneId": null,
       "__typename": "CountryAreas"
     },
     {
       "id": "194",
       "titleEn": "El Gendy St (Al Mahallah Al Kubra) (Al Mahallah Al Kubra)",
       "titleAr": "شارع الجندى (المحلة الكبرى)",
       "lat": 30.9762736,
       "lng": 31.1799603,
       "cityId": 3,
       "cityTitleEn": "Al Mahallah Al Kubra",
       "cityTitleAr": "المحلة الكبرى",
       "branchId": null,
       "deliveryZoneId": null,
       "__typename": "CountryAreas"
     },
     {
       "id": "195",
       "titleEn": "El Awakaf (Kafr El Sheikh) (Kafr El Sheikh)",
       "titleAr": "الاوقاف (كفر الشيخ)",
       "lat": 31.2999126,
       "lng": 31.1988041,
       "cityId": 4,
       "cityTitleEn": "Kafr El Sheikh",
       "cityTitleAr": "كفر الشيخ",
       "branchId": null,
       "deliveryZoneId": null,
       "__typename": "CountryAreas"
     },
     {
       "id": "196",
       "titleEn": "Taksim 4 (Kafr El Sheikh) (Kafr El Sheikh)",
       "titleAr": "تقسيم 4 (كفر الشيخ)",
       "lat": 31.1136239,
       "lng": 30.9324122,
       "cityId": 4,
       "cityTitleEn": "Kafr El Sheikh",
       "cityTitleAr": "كفر الشيخ",
       "branchId": null,
       "deliveryZoneId": null,
       "__typename": "CountryAreas"
     },
     {
       "id": "197",
       "titleEn": "Hay El Montazah (Kafr El Sheikh) (Kafr El Sheikh)",
       "titleAr": "حي المنتزه (كفر الشيخ)",
       "lat": 31.1199526,
       "lng": 30.9408403,
       "cityId": 4,
       "cityTitleEn": "Kafr El Sheikh",
       "cityTitleAr": "كفر الشيخ",
       "branchId": null,
       "deliveryZoneId": null,
       "__typename": "CountryAreas"
     },
     {
       "id": "198",
       "titleEn": "El Rabeaa' Towers (Kafr El Sheikh) (Kafr El Sheikh)",
       "titleAr": "أبراج الربيع (كفر الشيخ)",
       "lat": 31.1045906,
       "lng": 30.9288817,
       "cityId": 4,
       "cityTitleEn": "Kafr El Sheikh",
       "cityTitleAr": "كفر الشيخ",
       "branchId": null,
       "deliveryZoneId": null,
       "__typename": "CountryAreas"
     },
     {
       "id": "199",
       "titleEn": "El Dawly El Gadid (Kafr El Sheikh) (Kafr El Sheikh)",
       "titleAr": "الدولي الجديد‎ (كفر الشيخ)",
       "lat": 31.1135654,
       "lng": 30.941679,
       "cityId": 4,
       "cityTitleEn": "Kafr El Sheikh",
       "cityTitleAr": "كفر الشيخ",
       "branchId": null,
       "deliveryZoneId": null,
       "__typename": "CountryAreas"
     },
     {
       "id": "200",
       "titleEn": "Kafr El Sheikh Downtown (Kafr El Sheikh) (Kafr El Sheikh)",
       "titleAr": "وسط البلد (كفر الشيخ)",
       "lat": 31.1092958,
       "lng": 30.9381156,
       "cityId": 4,
       "cityTitleEn": "Kafr El Sheikh",
       "cityTitleAr": "كفر الشيخ",
       "branchId": null,
       "deliveryZoneId": null,
       "__typename": "CountryAreas"
     },
     {
       "id": "201",
       "titleEn": "Masaken El Fondkia (Kafr El Sheikh) (Kafr El Sheikh)",
       "titleAr": "مساكن الفندقيه‎‎ (كفر الشيخ)",
       "lat": 31.0945293,
       "lng": 30.9467214,
       "cityId": 4,
       "cityTitleEn": "Kafr El Sheikh",
       "cityTitleAr": "كفر الشيخ",
       "branchId": null,
       "deliveryZoneId": null,
       "__typename": "CountryAreas"
     },
     {
       "id": "202",
       "titleEn": "Taksim 2 (Kafr El Sheikh) (Kafr El Sheikh)",
       "titleAr": "تقسيم 2 (كفر الشيخ)",
       "lat": 31.1129365,
       "lng": 30.9496263,
       "cityId": 4,
       "cityTitleEn": "Kafr El Sheikh",
       "cityTitleAr": "كفر الشيخ",
       "branchId": null,
       "deliveryZoneId": null,
       "__typename": "CountryAreas"
     },
     {
       "id": "203",
       "titleEn": "Hadekat San'aa (Kafr El Sheikh) (Kafr El Sheikh)",
       "titleAr": "حديقه صنعاء (كفر الشيخ)",
       "lat": 31.1043684,
       "lng": 30.9470218,
       "cityId": 4,
       "cityTitleEn": "Kafr El Sheikh",
       "cityTitleAr": "كفر الشيخ",
       "branchId": null,
       "deliveryZoneId": null,
       "__typename": "CountryAreas"
     },
     {
       "id": "204",
       "titleEn": "Taksim El Qodaa (Kafr El Sheikh) (Kafr El Sheikh)",
       "titleAr": "تقسيم القضاه (كفر الشيخ)",
       "lat": 31.1173863,
       "lng": 30.9413782,
       "cityId": 4,
       "cityTitleEn": "Kafr El Sheikh",
       "cityTitleAr": "كفر الشيخ",
       "branchId": null,
       "deliveryZoneId": null,
       "__typename": "CountryAreas"
     },
     {
       "id": "205",
       "titleEn": "El Moharbin El Gedida (Kafr El Sheikh) (Kafr El Sheikh)",
       "titleAr": "المحاربين الجديدة (كفر الشيخ)",
       "lat": 31.115056,
       "lng": 30.93795,
       "cityId": 4,
       "cityTitleEn": "Kafr El Sheikh",
       "cityTitleAr": "كفر الشيخ",
       "branchId": null,
       "deliveryZoneId": null,
       "__typename": "CountryAreas"
     },
     {
       "id": "206",
       "titleEn": "Mahtet El Bohos El Zera'ia (Kafr El Sheikh) (Kafr El Sheikh)",
       "titleAr": "محطه البحوث الزراعيه (كفر الشيخ)",
       "lat": 31.1094287,
       "lng": 30.9432912,
       "cityId": 4,
       "cityTitleEn": "Kafr El Sheikh",
       "cityTitleAr": "كفر الشيخ",
       "branchId": null,
       "deliveryZoneId": null,
       "__typename": "CountryAreas"
     },
     {
       "id": "207",
       "titleEn": "Masaken El Ray Wel Atbaa' (Kafr El Sheikh) (Kafr El Sheikh)",
       "titleAr": "مساكن الري والاطباء (كفر الشيخ)",
       "lat": 31.1003722,
       "lng": 30.9455198,
       "cityId": 4,
       "cityTitleEn": "Kafr El Sheikh",
       "cityTitleAr": "كفر الشيخ",
       "branchId": null,
       "deliveryZoneId": null,
       "__typename": "CountryAreas"
     },
     {
       "id": "208",
       "titleEn": "El Madina Sena'eya Wel Togarya (Kafr El Sheikh) (Kafr El Sheikh)",
       "titleAr": "المدينه الصناعيه و التجاريه (كفر الشيخ)",
       "lat": 31.1106593,
       "lng": 30.9387799,
       "cityId": 4,
       "cityTitleEn": "Kafr El Sheikh",
       "cityTitleAr": "كفر الشيخ",
       "branchId": null,
       "deliveryZoneId": null,
       "__typename": "CountryAreas"
     },
     {
       "id": "209",
       "titleEn": "Kafr El Sheikh University (Kafr El Sheikh) (Kafr El Sheikh)",
       "titleAr": "جامعه كفر الشيخ (كفر الشيخ)",
       "lat": 31.1006794,
       "lng": 30.9508472,
       "cityId": 4,
       "cityTitleEn": "Kafr El Sheikh",
       "cityTitleAr": "كفر الشيخ",
       "branchId": null,
       "deliveryZoneId": null,
       "__typename": "CountryAreas"
     },
     {
       "id": "210",
       "titleEn": "Sharea' El Masnaa' (Kafr El Sheikh) (Kafr El Sheikh)",
       "titleAr": "شارع المصنع (كفر الشيخ)",
       "lat": 31.1148798,
       "lng": 30.9510654,
       "cityId": 4,
       "cityTitleEn": "Kafr El Sheikh",
       "cityTitleAr": "كفر الشيخ",
       "branchId": null,
       "deliveryZoneId": null,
       "__typename": "CountryAreas"
     },
     {
       "id": "211",
       "titleEn": "Sakha (Kafr El Sheikh) (Kafr El Sheikh)",
       "titleAr": "سخا (كفر الشيخ)",
       "lat": 31.0894482,
       "lng": 30.9443505,
       "cityId": 4,
       "cityTitleEn": "Kafr El Sheikh",
       "cityTitleAr": "كفر الشيخ",
       "branchId": null,
       "deliveryZoneId": null,
       "__typename": "CountryAreas"
     },
     {
       "id": "212",
       "titleEn": "Kafr El Sheikh Stadium (Kafr El Sheikh) (Kafr El Sheikh)",
       "titleAr": "استاد كفر الشيخ (كفر الشيخ)",
       "lat": 31.109514,
       "lng": 30.9517402,
       "cityId": 4,
       "cityTitleEn": "Kafr El Sheikh",
       "cityTitleAr": "كفر الشيخ",
       "branchId": null,
       "deliveryZoneId": null,
       "__typename": "CountryAreas"
     },
     {
       "id": "213",
       "titleEn": "Mabna El Mohafza (Kafr El Sheikh) (Kafr El Sheikh)",
       "titleAr": "مبنى المحافظه (كفر الشيخ)",
       "lat": 31.1072804,
       "lng": 30.9443557,
       "cityId": 4,
       "cityTitleEn": "Kafr El Sheikh",
       "cityTitleAr": "كفر الشيخ",
       "branchId": null,
       "deliveryZoneId": null,
       "__typename": "CountryAreas"
     },
     {
       "id": "214",
       "titleEn": "Medan Nasr (Kafr El Sheikh) (Kafr El Sheikh)",
       "titleAr": "ميدان نصر (كفر الشيخ)",
       "lat": 31.1106593,
       "lng": 30.9387799,
       "cityId": 4,
       "cityTitleEn": "Kafr El Sheikh",
       "cityTitleAr": "كفر الشيخ",
       "branchId": null,
       "deliveryZoneId": null,
       "__typename": "CountryAreas"
     },
     {
       "id": "215",
       "titleEn": "Nadi Kafr El Sheikh Wel Shorta (Kafr El Sheikh) (Kafr El Sheikh)",
       "titleAr": "نادي كفر الشيخ و الشرطه (كفر الشيخ)",
       "lat": 31.1090966,
       "lng": 30.9507021,
       "cityId": 4,
       "cityTitleEn": "Kafr El Sheikh",
       "cityTitleAr": "كفر الشيخ",
       "branchId": null,
       "deliveryZoneId": null,
       "__typename": "CountryAreas"
     },
     {
       "id": "216",
       "titleEn": "El Bohous El Zera'ya (Ismailia) (Ismailia)",
       "titleAr": "البحوث الزراعيه (الأسماعيليه)",
       "lat": 30.6159703,
       "lng": 32.2441182,
       "cityId": 5,
       "cityTitleEn": "Ismailia",
       "cityTitleAr": "الأسماعيليه",
       "branchId": null,
       "deliveryZoneId": null,
       "__typename": "CountryAreas"
     },
     {
       "id": "217",
       "titleEn": "El Mahta El Gedida (Ismailia) (Ismailia)",
       "titleAr": "المحطه الجديده (الأسماعيليه)",
       "lat": 30.5872875,
       "lng": 32.2618439,
       "cityId": 5,
       "cityTitleEn": "Ismailia",
       "cityTitleAr": "الأسماعيليه",
       "branchId": null,
       "deliveryZoneId": null,
       "__typename": "CountryAreas"
     },
     {
       "id": "218",
       "titleEn": "Hay Awel (Ismailia) (Ismailia)",
       "titleAr": "حي أول (الأسماعيليه)",
       "lat": 30.5815714,
       "lng": 32.2543055,
       "cityId": 5,
       "cityTitleEn": "Ismailia",
       "cityTitleAr": "الأسماعيليه",
       "branchId": null,
       "deliveryZoneId": null,
       "__typename": "CountryAreas"
     },
     {
       "id": "219",
       "titleEn": "El Mostashfa El A'am (Ismailia) (Ismailia)",
       "titleAr": "المسنشفي العام (الأسماعيليه)",
       "lat": 30.6011827,
       "lng": 31.7699833,
       "cityId": 5,
       "cityTitleEn": "Ismailia",
       "cityTitleAr": "الأسماعيليه",
       "branchId": null,
       "deliveryZoneId": null,
       "__typename": "CountryAreas"
     },
     {
       "id": "220",
       "titleEn": "El Zohour (Ismailia) (Ismailia)",
       "titleAr": "الزهور (الأسماعيليه)",
       "lat": 30.6120264,
       "lng": 32.2889785,
       "cityId": 5,
       "cityTitleEn": "Ismailia",
       "cityTitleAr": "الأسماعيليه",
       "branchId": null,
       "deliveryZoneId": null,
       "__typename": "CountryAreas"
     },
     {
       "id": "221",
       "titleEn": "District 7 (Ismailia) (Ismailia)",
       "titleAr": "المنطقة السابعة (الأسماعيليه)",
       "lat": 30.6017007,
       "lng": 32.2040606,
       "cityId": 5,
       "cityTitleEn": "Ismailia",
       "cityTitleAr": "الأسماعيليه",
       "branchId": null,
       "deliveryZoneId": null,
       "__typename": "CountryAreas"
     },
     {
       "id": "222",
       "titleEn": "Ard El Gam'iyat (Ismailia) (Ismailia)",
       "titleAr": "ارض الجمعيات (الأسماعيليه)",
       "lat": 30.6146968,
       "lng": 32.2951603,
       "cityId": 5,
       "cityTitleEn": "Ismailia",
       "cityTitleAr": "الأسماعيليه",
       "branchId": null,
       "deliveryZoneId": null,
       "__typename": "CountryAreas"
     },
     {
       "id": "223",
       "titleEn": "El Shikh Zayed - El Mahta (Ismailia) (Ismailia)",
       "titleAr": "الشيخ زايد - المحطه (الأسماعيليه)",
       "lat": 30.5586908,
       "lng": 32.2580738,
       "cityId": 5,
       "cityTitleEn": "Ismailia",
       "cityTitleAr": "الأسماعيليه",
       "branchId": null,
       "deliveryZoneId": null,
       "__typename": "CountryAreas"
     },
     {
       "id": "224",
       "titleEn": "Garden City (Ismailia) (Ismailia)",
       "titleAr": "جاردن سيتي (الأسماعيليه)",
       "lat": 30.6031309,
       "lng": 32.2782612,
       "cityId": 5,
       "cityTitleEn": "Ismailia",
       "cityTitleAr": "الأسماعيليه",
       "branchId": null,
       "deliveryZoneId": null,
       "__typename": "CountryAreas"
     },
     {
       "id": "225",
       "titleEn": "Cokacola (Ismailia) (Ismailia)",
       "titleAr": "كوكاكولا (الأسماعيليه)",
       "lat": 30.5957632,
       "lng": 32.287541,
       "cityId": 5,
       "cityTitleEn": "Ismailia",
       "cityTitleAr": "الأسماعيليه",
       "branchId": null,
       "deliveryZoneId": null,
       "__typename": "CountryAreas"
     },
     {
       "id": "226",
       "titleEn": "Industrial zone (Ismailia) (Ismailia)",
       "titleAr": "المنطقه الصناعيه (الأسماعيليه)",
       "lat": 30.5851233,
       "lng": 32.2114952,
       "cityId": 5,
       "cityTitleEn": "Ismailia",
       "cityTitleAr": "الأسماعيليه",
       "branchId": null,
       "deliveryZoneId": null,
       "__typename": "CountryAreas"
     },
     {
       "id": "227",
       "titleEn": "Nemra 6 (Ismailia) (Ismailia)",
       "titleAr": "نمرة 6 (الأسماعيليه)",
       "lat": 30.5900066,
       "lng": 32.3098513,
       "cityId": 5,
       "cityTitleEn": "Ismailia",
       "cityTitleAr": "الأسماعيليه",
       "branchId": null,
       "deliveryZoneId": null,
       "__typename": "CountryAreas"
     },
     {
       "id": "228",
       "titleEn": "University Hospital (Ismailia) (Ismailia)",
       "titleAr": "مستشفي الجامعة (الأسماعيليه)",
       "lat": 30.6225795,
       "lng": 32.2815574,
       "cityId": 5,
       "cityTitleEn": "Ismailia",
       "cityTitleAr": "الأسماعيليه",
       "branchId": null,
       "deliveryZoneId": null,
       "__typename": "CountryAreas"
     },
     {
       "id": "229",
       "titleEn": "El Balabsa (Ismailia) (Ismailia)",
       "titleAr": "البلابسة (الأسماعيليه)",
       "lat": 30.5987479,
       "lng": 32.25759,
       "cityId": 5,
       "cityTitleEn": "Ismailia",
       "cityTitleAr": "الأسماعيليه",
       "branchId": null,
       "deliveryZoneId": null,
       "__typename": "CountryAreas"
     },
     {
       "id": "230",
       "titleEn": "Hay El Salam (Ismailia) (Ismailia)",
       "titleAr": "حي السلام (الأسماعيليه)",
       "lat": 30.6121573,
       "lng": 32.2625529,
       "cityId": 5,
       "cityTitleEn": "Ismailia",
       "cityTitleAr": "الأسماعيليه",
       "branchId": null,
       "deliveryZoneId": null,
       "__typename": "CountryAreas"
     },
     {
       "id": "231",
       "titleEn": "El Gam'aa El Kadima (Ismailia) (Ismailia)",
       "titleAr": "الجامعة القديمة (الأسماعيليه)",
       "lat": 30.5964923,
       "lng": 32.2714586,
       "cityId": 5,
       "cityTitleEn": "Ismailia",
       "cityTitleAr": "الأسماعيليه",
       "branchId": null,
       "deliveryZoneId": null,
       "__typename": "CountryAreas"
     },
     {
       "id": "232",
       "titleEn": "Future City (Ismailia) (Ismailia)",
       "titleAr": "مدينه المستقبل (الأسماعيليه)",
       "lat": 30.5862817,
       "lng": 32.1892125,
       "cityId": 5,
       "cityTitleEn": "Ismailia",
       "cityTitleAr": "الأسماعيليه",
       "branchId": null,
       "deliveryZoneId": null,
       "__typename": "CountryAreas"
     },
     {
       "id": "233",
       "titleEn": "Downtown - Champollion (Ismailia) (Ismailia)",
       "titleAr": "شامبليون وسط البلد (الأسماعيليه)",
       "lat": 30.0473523,
       "lng": 31.2358123,
       "cityId": 5,
       "cityTitleEn": "Ismailia",
       "cityTitleAr": "الأسماعيليه",
       "branchId": null,
       "deliveryZoneId": null,
       "__typename": "CountryAreas"
     },
     {
       "id": "234",
       "titleEn": "Post Office (Ismailia) (Ismailia)",
       "titleAr": "مكتب البريد (الأسماعيليه)",
       "lat": 30.5944189,
       "lng": 32.2724173,
       "cityId": 5,
       "cityTitleEn": "Ismailia",
       "cityTitleAr": "الأسماعيليه",
       "branchId": null,
       "deliveryZoneId": null,
       "__typename": "CountryAreas"
     },
     {
       "id": "235",
       "titleEn": "10th of Ramadan (Ismailia) (Ismailia)",
       "titleAr": "العاشر من رمضان (الأسماعيليه)",
       "lat": 30.2926655,
       "lng": 31.7423434,
       "cityId": 5,
       "cityTitleEn": "Ismailia",
       "cityTitleAr": "الأسماعيليه",
       "branchId": null,
       "deliveryZoneId": null,
       "__typename": "CountryAreas"
     },
     {
       "id": "236",
       "titleEn": "Al Nakhil (Ismailia) (Ismailia)",
       "titleAr": "النخيل (الأسماعيليه)",
       "lat": 30.5904724,
       "lng": 32.2871204,
       "cityId": 5,
       "cityTitleEn": "Ismailia",
       "cityTitleAr": "الأسماعيليه",
       "branchId": null,
       "deliveryZoneId": null,
       "__typename": "CountryAreas"
     },
     {
       "id": "237",
       "titleEn": "El Shohada (Ismailia) (Ismailia)",
       "titleAr": "الشهداء (الأسماعيليه)",
       "lat": 30.6013268,
       "lng": 32.2716975,
       "cityId": 5,
       "cityTitleEn": "Ismailia",
       "cityTitleAr": "الأسماعيليه",
       "branchId": null,
       "deliveryZoneId": null,
       "__typename": "CountryAreas"
     },
     {
       "id": "238",
       "titleEn": "Downtown - Oraby (Ismailia) (Ismailia)",
       "titleAr": "عرابي وسط البلد (الأسماعيليه)",
       "lat": 30.0444567,
       "lng": 31.2362175,
       "cityId": 5,
       "cityTitleEn": "Ismailia",
       "cityTitleAr": "الأسماعيليه",
       "branchId": null,
       "deliveryZoneId": null,
       "__typename": "CountryAreas"
     },
     {
       "id": "239",
       "titleEn": "Nadi El Forosya (Ismailia) (Ismailia)",
       "titleAr": "نادي الفروسية (الأسماعيليه)",
       "lat": 30.5976798,
       "lng": 32.2836578,
       "cityId": 5,
       "cityTitleEn": "Ismailia",
       "cityTitleAr": "الأسماعيليه",
       "branchId": null,
       "deliveryZoneId": null,
       "__typename": "CountryAreas"
     },
     {
       "id": "240",
       "titleEn": "Ezzebt El Bahteny (Ismailia) (Ismailia)",
       "titleAr": "عزبة البهتيني (الأسماعيليه)",
       "lat": 30.5835401,
       "lng": 32.2660977,
       "cityId": 5,
       "cityTitleEn": "Ismailia",
       "cityTitleAr": "الأسماعيليه",
       "branchId": null,
       "deliveryZoneId": null,
       "__typename": "CountryAreas"
     },
     {
       "id": "241",
       "titleEn": "Al Sharea Al Gadid (Ismailia) (Ismailia)",
       "titleAr": "الشارع الجديد (الأسماعيليه)",
       "lat": 30.5640556,
       "lng": 32.2373682,
       "cityId": 5,
       "cityTitleEn": "Ismailia",
       "cityTitleAr": "الأسماعيليه",
       "branchId": null,
       "deliveryZoneId": null,
       "__typename": "CountryAreas"
     },
     {
       "id": "242",
       "titleEn": "Al Ersal (Ismailia) (Ismailia)",
       "titleAr": "الارسال (الأسماعيليه)",
       "lat": 30.6221543,
       "lng": 32.3186677,
       "cityId": 5,
       "cityTitleEn": "Ismailia",
       "cityTitleAr": "الأسماعيليه",
       "branchId": null,
       "deliveryZoneId": null,
       "__typename": "CountryAreas"
     },
     {
       "id": "243",
       "titleEn": "Forsan Island (Ismailia) (Ismailia)",
       "titleAr": "جزيرة الفرسان (الأسماعيليه)",
       "lat": 30.5864243,
       "lng": 32.2951603,
       "cityId": 5,
       "cityTitleEn": "Ismailia",
       "cityTitleAr": "الأسماعيليه",
       "branchId": null,
       "deliveryZoneId": null,
       "__typename": "CountryAreas"
     },
     {
       "id": "244",
       "titleEn": "El Montazah Club (Ismailia) (Ismailia)",
       "titleAr": "نادي المنتزه (الأسماعيليه)",
       "lat": 30.6089227,
       "lng": 32.2870094,
       "cityId": 5,
       "cityTitleEn": "Ismailia",
       "cityTitleAr": "الأسماعيليه",
       "branchId": null,
       "deliveryZoneId": null,
       "__typename": "CountryAreas"
     },
     {
       "id": "245",
       "titleEn": "Suez Canal University (Ismailia) (Ismailia)",
       "titleAr": "جامعة قناة السويس (الأسماعيليه)",
       "lat": 30.620533,
       "lng": 32.269729,
       "cityId": 5,
       "cityTitleEn": "Ismailia",
       "cityTitleAr": "الأسماعيليه",
       "branchId": null,
       "deliveryZoneId": null,
       "__typename": "CountryAreas"
     },
     {
       "id": "246",
       "titleEn": "El Kelo 2 (Ismailia) (Ismailia)",
       "titleAr": "الكيلو 2 (الأسماعيليه)",
       "lat": 30.6081479,
       "lng": 32.2398636,
       "cityId": 5,
       "cityTitleEn": "Ismailia",
       "cityTitleAr": "الأسماعيليه",
       "branchId": null,
       "deliveryZoneId": null,
       "__typename": "CountryAreas"
     },
     {
       "id": "247",
       "titleEn": "El Galaa (Ismailia) (Ismailia)",
       "titleAr": "الجلاء (الأسماعيليه)",
       "lat": 30.5889233,
       "lng": 32.2256803,
       "cityId": 5,
       "cityTitleEn": "Ismailia",
       "cityTitleAr": "الأسماعيليه",
       "branchId": null,
       "deliveryZoneId": null,
       "__typename": "CountryAreas"
     },
     {
       "id": "248",
       "titleEn": "Shebeen El Kom Street (Ismailia) (Ismailia)",
       "titleAr": "شارع شبين الكوم (الأسماعيليه)",
       "lat": 30.6055277,
       "lng": 32.2731722,
       "cityId": 5,
       "cityTitleEn": "Ismailia",
       "cityTitleAr": "الأسماعيليه",
       "branchId": null,
       "deliveryZoneId": null,
       "__typename": "CountryAreas"
     },
     {
       "id": "249",
       "titleEn": "El Belajat Street (Ismailia) (Ismailia)",
       "titleAr": "شارع البيلاجات (الأسماعيليه)",
       "lat": 30.5699043,
       "lng": 32.2779154,
       "cityId": 5,
       "cityTitleEn": "Ismailia",
       "cityTitleAr": "الأسماعيليه",
       "branchId": null,
       "deliveryZoneId": null,
       "__typename": "CountryAreas"
     },
     {
       "id": "250",
       "titleEn": "Hay 24 October (Ismailia) (Ismailia)",
       "titleAr": "حي 24 اكتوبر (الأسماعيليه)",
       "lat": 30.6106096,
       "lng": 32.3029563,
       "cityId": 5,
       "cityTitleEn": "Ismailia",
       "cityTitleAr": "الأسماعيليه",
       "branchId": null,
       "deliveryZoneId": null,
       "__typename": "CountryAreas"
     },
     {
       "id": "251",
       "titleEn": "Moustafa Kamel Square (Ismailia) (Ismailia)",
       "titleAr": "ميدان مصطفي كامل (الأسماعيليه)",
       "lat": 30.5932068,
       "lng": 32.2786045,
       "cityId": 5,
       "cityTitleEn": "Ismailia",
       "cityTitleAr": "الأسماعيليه",
       "branchId": null,
       "deliveryZoneId": null,
       "__typename": "CountryAreas"
     },
     {
       "id": "252",
       "titleEn": "Al Ezaa Wel Telfezyoun (Ismailia) (Ismailia)",
       "titleAr": "الاذاعة والتلفزيون (الأسماعيليه)",
       "lat": 30.599087,
       "lng": 32.2883375,
       "cityId": 5,
       "cityTitleEn": "Ismailia",
       "cityTitleAr": "الأسماعيليه",
       "branchId": null,
       "deliveryZoneId": null,
       "__typename": "CountryAreas"
     },
     {
       "id": "253",
       "titleEn": "Edaret Moror Ismailia (Ismailia) (Ismailia)",
       "titleAr": "ادارة مرور الاسماعيليه (الأسماعيليه)",
       "lat": 30.6163105,
       "lng": 32.2742502,
       "cityId": 5,
       "cityTitleEn": "Ismailia",
       "cityTitleAr": "الأسماعيليه",
       "branchId": null,
       "deliveryZoneId": null,
       "__typename": "CountryAreas"
     },
     {
       "id": "254",
       "titleEn": "Hay El Ta'eef (Ismailia) (Ismailia)",
       "titleAr": "حي الطائف (الأسماعيليه)",
       "lat": 21.2840782,
       "lng": 40.4248192,
       "cityId": 5,
       "cityTitleEn": "Ismailia",
       "cityTitleAr": "الأسماعيليه",
       "branchId": null,
       "deliveryZoneId": null,
       "__typename": "CountryAreas"
     },
     {
       "id": "255",
       "titleEn": "El Shikh Zayed - Togary Street (Ismailia) (Ismailia)",
       "titleAr": "الشيخ زايد - الشارع التجاري (الأسماعيليه)",
       "lat": 30.6047694,
       "lng": 32.286951,
       "cityId": 5,
       "cityTitleEn": "Ismailia",
       "cityTitleAr": "الأسماعيليه",
       "branchId": null,
       "deliveryZoneId": null,
       "__typename": "CountryAreas"
     },
     {
       "id": "256",
       "titleEn": "Baghdad St (Ismailia) (Ismailia)",
       "titleAr": "شارع بغداد (الأسماعيليه)",
       "lat": 30.5888634,
       "lng": 32.2569272,
       "cityId": 5,
       "cityTitleEn": "Ismailia",
       "cityTitleAr": "الأسماعيليه",
       "branchId": null,
       "deliveryZoneId": null,
       "__typename": "CountryAreas"
     },
     {
       "id": "257",
       "titleEn": "Ibrahim Salama (Ismailia) (Ismailia)",
       "titleAr": "ابراهيم سلامة (الأسماعيليه)",
       "lat": 30.6037503,
       "lng": 32.2747647,
       "cityId": 5,
       "cityTitleEn": "Ismailia",
       "cityTitleAr": "الأسماعيليه",
       "branchId": null,
       "deliveryZoneId": null,
       "__typename": "CountryAreas"
     },
     {
       "id": "258",
       "titleEn": "Othmason (Ismailia) (Ismailia)",
       "titleAr": "عثماسون (الأسماعيليه)",
       "lat": 30.6099925,
       "lng": 32.2785034,
       "cityId": 5,
       "cityTitleEn": "Ismailia",
       "cityTitleAr": "الأسماعيليه",
       "branchId": null,
       "deliveryZoneId": null,
       "__typename": "CountryAreas"
     },
     {
       "id": "259",
       "titleEn": "Al Fager Al Gadid (Ismailia) (Ismailia)",
       "titleAr": "الفجر الجديد (الأسماعيليه)",
       "lat": 30.5704949,
       "lng": 32.2364045,
       "cityId": 5,
       "cityTitleEn": "Ismailia",
       "cityTitleAr": "الأسماعيليه",
       "branchId": null,
       "deliveryZoneId": null,
       "__typename": "CountryAreas"
     },
     {
       "id": "260",
       "titleEn": "El Herafyeen (Ismailia) (Ismailia)",
       "titleAr": "الحرفيين (الأسماعيليه)",
       "lat": 30.6077719,
       "lng": 32.2923253,
       "cityId": 5,
       "cityTitleEn": "Ismailia",
       "cityTitleAr": "الأسماعيليه",
       "branchId": null,
       "deliveryZoneId": null,
       "__typename": "CountryAreas"
     },
     {
       "id": "261",
       "titleEn": "Souk Al Gomla (Ismailia) (Ismailia)",
       "titleAr": "سوق الجمله (الأسماعيليه)",
       "lat": 30.5893126,
       "lng": 32.2580339,
       "cityId": 5,
       "cityTitleEn": "Ismailia",
       "cityTitleAr": "الأسماعيليه",
       "branchId": null,
       "deliveryZoneId": null,
       "__typename": "CountryAreas"
     },
     {
       "id": "262",
       "titleEn": "District 5 (Ismailia) (Ismailia)",
       "titleAr": "المنطقة الخامسة (الأسماعيليه)",
       "lat": 30.6168648,
       "lng": 32.2838932,
       "cityId": 5,
       "cityTitleEn": "Ismailia",
       "cityTitleAr": "الأسماعيليه",
       "branchId": null,
       "deliveryZoneId": null,
       "__typename": "CountryAreas"
     },
     {
       "id": "263",
       "titleEn": "El Araisheyeh (Ismailia) (Ismailia)",
       "titleAr": "العرايشية (الأسماعيليه)",
       "lat": 30.5964923,
       "lng": 32.2714587,
       "cityId": 5,
       "cityTitleEn": "Ismailia",
       "cityTitleAr": "الأسماعيليه",
       "branchId": null,
       "deliveryZoneId": null,
       "__typename": "CountryAreas"
     },
     {
       "id": "264",
       "titleEn": "El Malaha Gardens (Ismailia) (Ismailia)",
       "titleAr": "جناين المحلة (الأسماعيليه)",
       "lat": 30.600314,
       "lng": 32.2673651,
       "cityId": 5,
       "cityTitleEn": "Ismailia",
       "cityTitleAr": "الأسماعيليه",
       "branchId": null,
       "deliveryZoneId": null,
       "__typename": "CountryAreas"
     },
     {
       "id": "265",
       "titleEn": "Ismailia Governorate (Ismailia) (Ismailia)",
       "titleAr": "محافظة الأسماعيليه (الأسماعيليه)",
       "lat": 30.5964923,
       "lng": 32.2714587,
       "cityId": 5,
       "cityTitleEn": "Ismailia",
       "cityTitleAr": "الأسماعيليه",
       "branchId": null,
       "deliveryZoneId": null,
       "__typename": "CountryAreas"
     },
     {
       "id": "266",
       "titleEn": "El Ta'awon (Ismailia) (Ismailia)",
       "titleAr": "التعاون (الأسماعيليه)",
       "lat": 30.5964923,
       "lng": 32.2714587,
       "cityId": 5,
       "cityTitleEn": "Ismailia",
       "cityTitleAr": "الأسماعيليه",
       "branchId": null,
       "deliveryZoneId": null,
       "__typename": "CountryAreas"
     },