[

      {
        "id": "1496",
        "titleEn": "uhud (Riyadh)",
        "titleAr": "احد",
        "lat": 26.4133604,
        "lng": 50.0407493,
        "cityId": 48,
        "cityTitleEn": "Riyadh",
        "cityTitleAr": "الرياض",
        "branchId": null,
        "deliveryZoneId": null,
        "__typename": "CountryAreas"
      },
      {
        "id": "1497",
        "titleEn": "Ishbiliyah (Riyadh)",
        "titleAr": "اشبيليه",
        "lat": 24.7956698,
        "lng": 46.7979689,
        "cityId": 48,
        "cityTitleEn": "Riyadh",
        "cityTitleAr": "الرياض",
        "branchId": null,
        "deliveryZoneId": null,
        "__typename": "CountryAreas"
      },
      {
        "id": "1498",
        "titleEn": "Al Izdihar (Riyadh)",
        "titleAr": "الأزدهار",
        "lat": 24.7817393,
        "lng": 46.7181871,
        "cityId": 48,
        "cityTitleEn": "Riyadh",
        "cityTitleAr": "الرياض",
        "branchId": null,
        "deliveryZoneId": null,
        "__typename": "CountryAreas"
      },
      {
        "id": "1499",
        "titleEn": "Al Iskan (Riyadh)",
        "titleAr": "الاسكان",
        "lat": 24.5739754,
        "lng": 46.8494034,
        "cityId": 48,
        "cityTitleEn": "Riyadh",
        "cityTitleAr": "الرياض",
        "branchId": null,
        "deliveryZoneId": null,
        "__typename": "CountryAreas"
      },
      {
        "id": "1500",
        "titleEn": "Al Andalus (Riyadh)",
        "titleAr": "الاندلس",
        "lat": 24.7437195,
        "lng": 46.7906895,
        "cityId": 48,
        "cityTitleEn": "Riyadh",
        "cityTitleAr": "الرياض",
        "branchId": null,
        "deliveryZoneId": null,
        "__typename": "CountryAreas"
      },
      {
        "id": "1501",
        "titleEn": "Al Badi'ah (Riyadh)",
        "titleAr": "البديعة",
        "lat": 24.6136401,
        "lng": 46.6825216,
        "cityId": 48,
        "cityTitleEn": "Riyadh",
        "cityTitleAr": "الرياض",
        "branchId": null,
        "deliveryZoneId": null,
        "__typename": "CountryAreas"
      },
      {
        "id": "1502",
        "titleEn": "Al Batha (Riyadh)",
        "titleAr": "البطحاء",
        "lat": 24.6194976,
        "lng": 46.7246486,
        "cityId": 48,
        "cityTitleEn": "Riyadh",
        "cityTitleAr": "الرياض",
        "branchId": null,
        "deliveryZoneId": null,
        "__typename": "CountryAreas"
      },
      {
        "id": "1503",
        "titleEn": "Al Taawun (Riyadh)",
        "titleAr": "التعاون",
        "lat": 24.773312,
        "lng": 46.6979965,
        "cityId": 48,
        "cityTitleEn": "Riyadh",
        "cityTitleAr": "الرياض",
        "branchId": null,
        "deliveryZoneId": null,
        "__typename": "CountryAreas"
      },
      {
        "id": "1504",
        "titleEn": "Al Jaradiyah (Riyadh)",
        "titleAr": "الجرادية",
        "lat": 24.615686,
        "lng": 46.6983054,
        "cityId": 48,
        "cityTitleEn": "Riyadh",
        "cityTitleAr": "الرياض",
        "branchId": null,
        "deliveryZoneId": null,
        "__typename": "CountryAreas"
      },
      {
        "id": "1505",
        "titleEn": "Al Jazirah (Riyadh)",
        "titleAr": "الجزيرة",
        "lat": 24.6642171,
        "lng": 46.7966789,
        "cityId": 48,
        "cityTitleEn": "Riyadh",
        "cityTitleAr": "الرياض",
        "branchId": null,
        "deliveryZoneId": null,
        "__typename": "CountryAreas"
      },
      {
        "id": "1506",
        "titleEn": "Al Janadriyah (Riyadh)",
        "titleAr": "الجنادرية",
        "lat": 24.8445132,
        "lng": 46.8665674,
        "cityId": 48,
        "cityTitleEn": "Riyadh",
        "cityTitleAr": "الرياض",
        "branchId": null,
        "deliveryZoneId": null,
        "__typename": "CountryAreas"
      },
      {
        "id": "1507",
        "titleEn": "Al Hamra (Riyadh)",
        "titleAr": "الحمراء",
        "lat": 24.7755826,
        "lng": 46.752866,
        "cityId": 48,
        "cityTitleEn": "Riyadh",
        "cityTitleAr": "الرياض",
        "branchId": null,
        "deliveryZoneId": null,
        "__typename": "CountryAreas"
      },
      {
        "id": "1508",
        "titleEn": "Al Khalidiyah (Riyadh)",
        "titleAr": "الخالدية",
        "lat": 21.5592977,
        "lng": 39.1342174,
        "cityId": 48,
        "cityTitleEn": "Riyadh",
        "cityTitleAr": "الرياض",
        "branchId": null,
        "deliveryZoneId": null,
        "__typename": "CountryAreas"
      },
      {
        "id": "1509",
        "titleEn": "Al Khuzama (Riyadh)",
        "titleAr": "الخزامى",
        "lat": 24.7137459,
        "lng": 46.6060832,
        "cityId": 48,
        "cityTitleEn": "Riyadh",
        "cityTitleAr": "الرياض",
        "branchId": null,
        "deliveryZoneId": null,
        "__typename": "CountryAreas"
      },
      {
        "id": "1510",
        "titleEn": "Al Khaleej (Riyadh)",
        "titleAr": "الخليج",
        "lat": 24.7751855,
        "lng": 46.8010727,
        "cityId": 48,
        "cityTitleEn": "Riyadh",
        "cityTitleAr": "الرياض",
        "branchId": null,
        "deliveryZoneId": null,
        "__typename": "CountryAreas"
      },
      {
        "id": "1511",
        "titleEn": "Al Diriyah (Riyadh)",
        "titleAr": "الدرعية",
        "lat": 24.7481198,
        "lng": 46.5363345,
        "cityId": 48,
        "cityTitleEn": "Riyadh",
        "cityTitleAr": "الرياض",
        "branchId": null,
        "deliveryZoneId": null,
        "__typename": "CountryAreas"
      },
      {
        "id": "1512",
        "titleEn": "Al Dubiyah (Riyadh)",
        "titleAr": "الدوبية",
        "lat": 24.6212385,
        "lng": 46.7121969,
        "cityId": 48,
        "cityTitleEn": "Riyadh",
        "cityTitleAr": "الرياض",
        "branchId": null,
        "deliveryZoneId": null,
        "__typename": "CountryAreas"
      },
      {
        "id": "1513",
        "titleEn": "Al Dirah (Riyadh)",
        "titleAr": "الديرة",
        "lat": 24.6311537,
        "lng": 46.7115929,
        "cityId": 48,
        "cityTitleEn": "Riyadh",
        "cityTitleAr": "الرياض",
        "branchId": null,
        "deliveryZoneId": null,
        "__typename": "CountryAreas"
      },
      {
        "id": "1514",
        "titleEn": "Al Raid (Riyadh)",
        "titleAr": "الرائد",
        "lat": 24.7061466,
        "lng": 46.6390191,
        "cityId": 48,
        "cityTitleEn": "Riyadh",
        "cityTitleAr": "الرياض",
        "branchId": null,
        "deliveryZoneId": null,
        "__typename": "CountryAreas"
      },
      {
        "id": "1515",
        "titleEn": "Al Rabwah (Riyadh)",
        "titleAr": "الربوة",
        "lat": 21.6035142,
        "lng": 39.1819419,
        "cityId": 48,
        "cityTitleEn": "Riyadh",
        "cityTitleAr": "الرياض",
        "branchId": null,
        "deliveryZoneId": null,
        "__typename": "CountryAreas"
      },
      {
        "id": "1516",
        "titleEn": "Al Rabi (Riyadh)",
        "titleAr": "الربيع",
        "lat": 24.7937795,
        "lng": 46.6563536,
        "cityId": 48,
        "cityTitleEn": "Riyadh",
        "cityTitleAr": "الرياض",
        "branchId": null,
        "deliveryZoneId": null,
        "__typename": "CountryAreas"
      },
      {
        "id": "1517",
        "titleEn": "Al Rahmaniyah (Riyadh)",
        "titleAr": "الرحمانية",
        "lat": 24.7169516,
        "lng": 46.6593521,
        "cityId": 48,
        "cityTitleEn": "Riyadh",
        "cityTitleAr": "الرياض",
        "branchId": null,
        "deliveryZoneId": null,
        "__typename": "CountryAreas"
      },
      {
        "id": "1518",
        "titleEn": "Al Rafiah (Riyadh)",
        "titleAr": "الرفيعة",
        "lat": 24.6385815,
        "lng": 46.6637973,
        "cityId": 48,
        "cityTitleEn": "Riyadh",
        "cityTitleAr": "الرياض",
        "branchId": null,
        "deliveryZoneId": null,
        "__typename": "CountryAreas"
      },
      {
        "id": "1519",
        "titleEn": "Al Rimal (Riyadh)",
        "titleAr": "الرمال",
        "lat": 24.8835554,
        "lng": 46.8068357,
        "cityId": 48,
        "cityTitleEn": "Riyadh",
        "cityTitleAr": "الرياض",
        "branchId": null,
        "deliveryZoneId": null,
        "__typename": "CountryAreas"
      },
      {
        "id": "1520",
        "titleEn": "Al Rimayah (Riyadh)",
        "titleAr": "الرماية",
        "lat": 24.7565986,
        "lng": 46.8632877,
        "cityId": 48,
        "cityTitleEn": "Riyadh",
        "cityTitleAr": "الرياض",
        "branchId": null,
        "deliveryZoneId": null,
        "__typename": "CountryAreas"
      },
      {
        "id": "1521",
        "titleEn": "Al Rawabi (Riyadh)",
        "titleAr": "الروابي",
        "lat": 21.468377,
        "lng": 39.2697039,
        "cityId": 48,
        "cityTitleEn": "Riyadh",
        "cityTitleAr": "الرياض",
        "branchId": null,
        "deliveryZoneId": null,
        "__typename": "CountryAreas"
      },
      {
        "id": "1522",
        "titleEn": "Al Rawdah (Riyadh)",
        "titleAr": "الروضة",
        "lat": 21.5593876,
        "lng": 39.15277,
        "cityId": 48,
        "cityTitleEn": "Riyadh",
        "cityTitleAr": "الرياض",
        "branchId": null,
        "deliveryZoneId": null,
        "__typename": "CountryAreas"
      },
      {
        "id": "1523",
        "titleEn": "Al Rayyan (Riyadh)",
        "titleAr": "الريان",
        "lat": 24.3136332,
        "lng": 45.8523026,
        "cityId": 48,
        "cityTitleEn": "Riyadh",
        "cityTitleAr": "الرياض",
        "branchId": null,
        "deliveryZoneId": null,
        "__typename": "CountryAreas"
      },
      {
        "id": "1524",
        "titleEn": "Al Zahraa (Riyadh)",
        "titleAr": "الزهراء",
        "lat": 24.6864943,
        "lng": 46.7297178,
        "cityId": 48,
        "cityTitleEn": "Riyadh",
        "cityTitleAr": "الرياض",
        "branchId": null,
        "deliveryZoneId": null,
        "__typename": "CountryAreas"
      },
      {
        "id": "1525",
        "titleEn": "Al Saadah (Riyadh)",
        "titleAr": "السعادة",
        "lat": 24.6935498,
        "lng": 46.839816,
        "cityId": 48,
        "cityTitleEn": "Riyadh",
        "cityTitleAr": "الرياض",
        "branchId": null,
        "deliveryZoneId": null,
        "__typename": "CountryAreas"
      },
      {
        "id": "1526",
        "titleEn": "Al Safarat (Riyadh)",
        "titleAr": "السفارات",
        "lat": 24.6717141,
        "lng": 46.6222155,
        "cityId": 48,
        "cityTitleEn": "Riyadh",
        "cityTitleAr": "الرياض",
        "branchId": null,
        "deliveryZoneId": null,
        "__typename": "CountryAreas"
      },
      {
        "id": "1527",
        "titleEn": "Al Salam (Riyadh)",
        "titleAr": "السلام",
        "lat": 24.7083372,
        "lng": 46.8133438,
        "cityId": 48,
        "cityTitleEn": "Riyadh",
        "cityTitleAr": "الرياض",
        "branchId": null,
        "deliveryZoneId": null,
        "__typename": "CountryAreas"
      },
      {
        "id": "1528",
        "titleEn": "Al Sulay (Riyadh)",
        "titleAr": "السلي",
        "lat": 24.6615689,
        "lng": 46.836023,
        "cityId": 48,
        "cityTitleEn": "Riyadh",
        "cityTitleAr": "الرياض",
        "branchId": null,
        "deliveryZoneId": null,
        "__typename": "CountryAreas"
      },
      {
        "id": "1529",
        "titleEn": "Al Sulaymanaya (Riyadh)",
        "titleAr": "السليمانية",
        "lat": 24.7037259,
        "lng": 46.7008982,
        "cityId": 48,
        "cityTitleEn": "Riyadh",
        "cityTitleAr": "الرياض",
        "branchId": null,
        "deliveryZoneId": null,
        "__typename": "CountryAreas"
      },
      {
        "id": "1530",
        "titleEn": "Al Suwaidi Al Gharabi (Riyadh)",
        "titleAr": "السويدي الغربي",
        "lat": 24.5722333,
        "lng": 46.6221215,
        "cityId": 48,
        "cityTitleEn": "Riyadh",
        "cityTitleAr": "الرياض",
        "branchId": null,
        "deliveryZoneId": null,
        "__typename": "CountryAreas"
      },
      {
        "id": "1531",
        "titleEn": "Al Sharafiyah (Riyadh)",
        "titleAr": "الشرفية",
        "lat": 24.6577573,
        "lng": 46.6693269,
        "cityId": 48,
        "cityTitleEn": "Riyadh",
        "cityTitleAr": "الرياض",
        "branchId": null,
        "deliveryZoneId": null,
        "__typename": "CountryAreas"
      },
      {
        "id": "1532",
        "titleEn": "Al Shifa (Riyadh)",
        "titleAr": "الشفا",
        "lat": 24.568018,
        "lng": 46.7033921,
        "cityId": 48,
        "cityTitleEn": "Riyadh",
        "cityTitleAr": "الرياض",
        "branchId": null,
        "deliveryZoneId": null,
        "__typename": "CountryAreas"
      },
      {
        "id": "1533",
        "titleEn": "Al Shimaisi (Riyadh)",
        "titleAr": "الشميسي",
        "lat": 24.6248155,
        "lng": 46.7010938,
        "cityId": 48,
        "cityTitleEn": "Riyadh",
        "cityTitleAr": "الرياض",
        "branchId": null,
        "deliveryZoneId": null,
        "__typename": "CountryAreas"
      },
      {
        "id": "1534",
        "titleEn": "Al Salhiyah (Riyadh)",
        "titleAr": "الصالحية",
        "lat": 24.6333842,
        "lng": 46.7345522,
        "cityId": 48,
        "cityTitleEn": "Riyadh",
        "cityTitleAr": "الرياض",
        "branchId": null,
        "deliveryZoneId": null,
        "__typename": "CountryAreas"
      },
      {
        "id": "1535",
        "titleEn": "Al Sahafah (Riyadh)",
        "titleAr": "الصحافة",
        "lat": 24.7993669,
        "lng": 46.6439147,
        "cityId": 48,
        "cityTitleEn": "Riyadh",
        "cityTitleAr": "الرياض",
        "branchId": null,
        "deliveryZoneId": null,
        "__typename": "CountryAreas"
      },
      {
        "id": "1536",
        "titleEn": "Al Safa (Riyadh)",
        "titleAr": "الصفا",
        "lat": 21.5843701,
        "lng": 39.2177702,
        "cityId": 48,
        "cityTitleEn": "Riyadh",
        "cityTitleAr": "الرياض",
        "branchId": null,
        "deliveryZoneId": null,
        "__typename": "CountryAreas"
      },
      {
        "id": "1537",
        "titleEn": "Al Sinaiyah (Riyadh)",
        "titleAr": "الصناعية القديمة",
        "lat": 24.639978,
        "lng": 46.7430136,
        "cityId": 48,
        "cityTitleEn": "Riyadh",
        "cityTitleAr": "الرياض",
        "branchId": null,
        "deliveryZoneId": null,
        "__typename": "CountryAreas"
      },
      {
        "id": "1538",
        "titleEn": "AL Dhubbat (Riyadh)",
        "titleAr": "الضباط",
        "lat": 24.6710222,
        "lng": 46.7218291,
        "cityId": 48,
        "cityTitleEn": "Riyadh",
        "cityTitleAr": "الرياض",
        "branchId": null,
        "deliveryZoneId": null,
        "__typename": "CountryAreas"
      },
      {
        "id": "1539",
        "titleEn": "Uraid (Riyadh)",
        "titleAr": "عريض",
        "lat": 24.4506648,
        "lng": 46.7436332,
        "cityId": 48,
        "cityTitleEn": "Riyadh",
        "cityTitleAr": "الرياض",
        "branchId": null,
        "deliveryZoneId": null,
        "__typename": "CountryAreas"
      },
      {
        "id": "1540",
        "titleEn": "Al Uraija (Riyadh)",
        "titleAr": "العريجاء",
        "lat": 24.6262118,
        "lng": 46.6585242,
        "cityId": 48,
        "cityTitleEn": "Riyadh",
        "cityTitleAr": "الرياض",
        "branchId": null,
        "deliveryZoneId": null,
        "__typename": "CountryAreas"
      },
      {
        "id": "1541",
        "titleEn": "Al Uraija Al Gharbiyah (Riyadh)",
        "titleAr": "العريجاء الغربية",
        "lat": 24.5977596,
        "lng": 46.5981595,
        "cityId": 48,
        "cityTitleEn": "Riyadh",
        "cityTitleAr": "الرياض",
        "branchId": null,
        "deliveryZoneId": null,
        "__typename": "CountryAreas"
      },
      {
        "id": "1542",
        "titleEn": "Al Uraija Al Wusta (Riyadh)",
        "titleAr": "العريجاء الوسطى",
        "lat": 24.6131895,
        "lng": 46.6345133,
        "cityId": 48,
        "cityTitleEn": "Riyadh",
        "cityTitleAr": "الرياض",
        "branchId": null,
        "deliveryZoneId": null,
        "__typename": "CountryAreas"
      },
      {
        "id": "1543",
        "titleEn": "Al Aziziyah (Riyadh)",
        "titleAr": "العزيزية",
        "lat": 21.5525941,
        "lng": 39.1886046,
        "cityId": 48,
        "cityTitleEn": "Riyadh",
        "cityTitleAr": "الرياض",
        "branchId": null,
        "deliveryZoneId": null,
        "__typename": "CountryAreas"
      },
      {
        "id": "1544",
        "titleEn": "Al Aqiq (Riyadh)",
        "titleAr": "العقيق",
        "lat": 24.7815132,
        "lng": 46.6272289,
        "cityId": 48,
        "cityTitleEn": "Riyadh",
        "cityTitleAr": "الرياض",
        "branchId": null,
        "deliveryZoneId": null,
        "__typename": "CountryAreas"
      },
      {
        "id": "1545",
        "titleEn": "Al Olaya (Riyadh)",
        "titleAr": "العليا",
        "lat": 24.6950925,
        "lng": 46.6805467,
        "cityId": 48,
        "cityTitleEn": "Riyadh",
        "cityTitleAr": "الرياض",
        "branchId": null,
        "deliveryZoneId": null,
        "__typename": "CountryAreas"
      },
      {
        "id": "1546",
        "titleEn": "Al Ammal (Riyadh)",
        "titleAr": "العمل",
        "lat": 24.6441384,
        "lng": 46.7212587,
        "cityId": 48,
        "cityTitleEn": "Riyadh",
        "cityTitleAr": "الرياض",
        "branchId": null,
        "deliveryZoneId": null,
        "__typename": "CountryAreas"
      },
      {
        "id": "1547",
        "titleEn": "Al Ghadir (Riyadh)",
        "titleAr": "الغدير",
        "lat": 24.7733423,
        "lng": 46.6551229,
        "cityId": 48,
        "cityTitleEn": "Riyadh",
        "cityTitleAr": "الرياض",
        "branchId": null,
        "deliveryZoneId": null,
        "__typename": "CountryAreas"
      },
      {
        "id": "1548",
        "titleEn": "Al Fakhiriyah (Riyadh)",
        "titleAr": "الفاخرية",
        "lat": 24.6422892,
        "lng": 46.6781339,
        "cityId": 48,
        "cityTitleEn": "Riyadh",
        "cityTitleAr": "الرياض",
        "branchId": null,
        "deliveryZoneId": null,
        "__typename": "CountryAreas"
      },
      {
        "id": "1549",
        "titleEn": "Al Falah (Riyadh)",
        "titleAr": "الفلاح",
        "lat": 24.7953128,
        "lng": 46.7087412,
        "cityId": 48,
        "cityTitleEn": "Riyadh",
        "cityTitleAr": "الرياض",
        "branchId": null,
        "deliveryZoneId": null,
        "__typename": "CountryAreas"
      },
      {
        "id": "1550",
        "titleEn": "Al Futah (Riyadh)",
        "titleAr": "الفوطة",
        "lat": 24.6414489,
        "lng": 46.7103848,
        "cityId": 48,
        "cityTitleEn": "Riyadh",
        "cityTitleAr": "الرياض",
        "branchId": null,
        "deliveryZoneId": null,
        "__typename": "CountryAreas"
      },
      {
        "id": "1551",
        "titleEn": "Al Faiha (Riyadh)",
        "titleAr": "الفيحاء",
        "lat": 21.4985935,
        "lng": 39.2167577,
        "cityId": 48,
        "cityTitleEn": "Riyadh",
        "cityTitleAr": "الرياض",
        "branchId": null,
        "deliveryZoneId": null,
        "__typename": "CountryAreas"
      },
      {
        "id": "1552",
        "titleEn": "Al Faisaliyah (Riyadh)",
        "titleAr": "الفيصلية",
        "lat": 21.5680451,
        "lng": 39.1828328,
        "cityId": 48,
        "cityTitleEn": "Riyadh",
        "cityTitleAr": "الرياض",
        "branchId": null,
        "deliveryZoneId": null,
        "__typename": "CountryAreas"
      },
      {
        "id": "1553",
        "titleEn": "Al Qadisiyah (Riyadh)",
        "titleAr": "القادسية",
        "lat": 24.8214142,
        "lng": 46.8164564,
        "cityId": 48,
        "cityTitleEn": "Riyadh",
        "cityTitleAr": "الرياض",
        "branchId": null,
        "deliveryZoneId": null,
        "__typename": "CountryAreas"
      },
      {
        "id": "1554",
        "titleEn": "Al Quds (Riyadh)",
        "titleAr": "القدس",
        "lat": 24.7572264,
        "lng": 46.752746,
        "cityId": 48,
        "cityTitleEn": "Riyadh",
        "cityTitleAr": "الرياض",
        "branchId": null,
        "deliveryZoneId": null,
        "__typename": "CountryAreas"
      },
      {
        "id": "1555",
        "titleEn": "Al Qairawan (Riyadh)",
        "titleAr": "القيروان",
        "lat": 24.8797695,
        "lng": 46.5723251,
        "cityId": 48,
        "cityTitleEn": "Riyadh",
        "cityTitleAr": "الرياض",
        "branchId": null,
        "deliveryZoneId": null,
        "__typename": "CountryAreas"
      },
      {
        "id": "1556",
        "titleEn": "Al Mutamarat (Riyadh)",
        "titleAr": "المؤتمرات",
        "lat": 24.6705492,
        "lng": 46.6863297,
        "cityId": 48,
        "cityTitleEn": "Riyadh",
        "cityTitleAr": "الرياض",
        "branchId": null,
        "deliveryZoneId": null,
        "__typename": "CountryAreas"
      },
      {
        "id": "1557",
        "titleEn": "Al Mohamadiyah (Riyadh)",
        "titleAr": "المحمدية",
        "lat": 24.7328437,
        "lng": 46.6492632,
        "cityId": 48,
        "cityTitleEn": "Riyadh",
        "cityTitleAr": "الرياض",
        "branchId": null,
        "deliveryZoneId": null,
        "__typename": "CountryAreas"
      },
      {
        "id": "1558",
        "titleEn": "Al Murabba (Riyadh)",
        "titleAr": "المربع",
        "lat": 24.65329,
        "lng": 46.7123675,
        "cityId": 48,
        "cityTitleEn": "Riyadh",
        "cityTitleAr": "الرياض",
        "branchId": null,
        "deliveryZoneId": null,
        "__typename": "CountryAreas"
      },
      {
        "id": "1559",
        "titleEn": "Al Morsalat (Riyadh)",
        "titleAr": "المرسلات",
        "lat": 24.7500559,
        "lng": 46.6950079,
        "cityId": 48,
        "cityTitleEn": "Riyadh",
        "cityTitleAr": "الرياض",
        "branchId": null,
        "deliveryZoneId": null,
        "__typename": "CountryAreas"
      },
      {
        "id": "1560",
        "titleEn": "Al Marqab (Riyadh)",
        "titleAr": "المرقب",
        "lat": 24.6362258,
        "lng": 46.722467,
        "cityId": 48,
        "cityTitleEn": "Riyadh",
        "cityTitleAr": "الرياض",
        "branchId": null,
        "deliveryZoneId": null,
        "__typename": "CountryAreas"
      },
      {
        "id": "1561",
        "titleEn": "Al Muruj (Riyadh)",
        "titleAr": "المروج",
        "lat": 24.7581687,
        "lng": 46.6620437,
        "cityId": 48,
        "cityTitleEn": "Riyadh",
        "cityTitleAr": "الرياض",
        "branchId": null,
        "deliveryZoneId": null,
        "__typename": "CountryAreas"
      },
      {
        "id": "1562",
        "titleEn": "Al Masani (Riyadh)",
        "titleAr": "المصانع",
        "lat": 24.5597377,
        "lng": 46.7479811,
        "cityId": 48,
        "cityTitleEn": "Riyadh",
        "cityTitleAr": "الرياض",
        "branchId": null,
        "deliveryZoneId": null,
        "__typename": "CountryAreas"
      },
      {
        "id": "1563",
        "titleEn": "Al Misfat (Riyadh)",
        "titleAr": "المصفاة",
        "lat": 24.5224185,
        "lng": 46.8688931,
        "cityId": 48,
        "cityTitleEn": "Riyadh",
        "cityTitleAr": "الرياض",
        "branchId": null,
        "deliveryZoneId": null,
        "__typename": "CountryAreas"
      },
      {
        "id": "1564",
        "titleEn": "Al Masiaf (Riyadh)",
        "titleAr": "المصيف",
        "lat": 24.7642874,
        "lng": 46.6808019,
        "cityId": 48,
        "cityTitleEn": "Riyadh",
        "cityTitleAr": "الرياض",
        "branchId": null,
        "deliveryZoneId": null,
        "__typename": "CountryAreas"
      },
      {
        "id": "1565",
        "titleEn": "Al Mathar Al Shamali (Riyadh)",
        "titleAr": "المعذر الشمالي",
        "lat": 24.699671,
        "lng": 46.6632918,
        "cityId": 48,
        "cityTitleEn": "Riyadh",
        "cityTitleAr": "الرياض",
        "branchId": null,
        "deliveryZoneId": null,
        "__typename": "CountryAreas"
      },
      {
        "id": "1566",
        "titleEn": "Makal (Riyadh)",
        "titleAr": "معكال",
        "lat": 24.6221005,
        "lng": 46.7146132,
        "cityId": 48,
        "cityTitleEn": "Riyadh",
        "cityTitleAr": "الرياض",
        "branchId": null,
        "deliveryZoneId": null,
        "__typename": "CountryAreas"
      },
      {
        "id": "1567",
        "titleEn": "Al Maizilah (Riyadh)",
        "titleAr": "المعيزلة",
        "lat": 24.7974027,
        "lng": 46.8461236,
        "cityId": 48,
        "cityTitleEn": "Riyadh",
        "cityTitleAr": "الرياض",
        "branchId": null,
        "deliveryZoneId": null,
        "__typename": "CountryAreas"
      },
      {
        "id": "1568",
        "titleEn": "Al Malaz (Riyadh)",
        "titleAr": "الملز",
        "lat": 24.6609127,
        "lng": 46.735865,
        "cityId": 48,
        "cityTitleEn": "Riyadh",
        "cityTitleAr": "الرياض",
        "branchId": null,
        "deliveryZoneId": null,
        "__typename": "CountryAreas"
      },
      {
        "id": "1569",
        "titleEn": "Al Malqa (Riyadh)",
        "titleAr": "الملقا",
        "lat": 24.8026271,
        "lng": 46.6044221,
        "cityId": 48,
        "cityTitleEn": "Riyadh",
        "cityTitleAr": "الرياض",
        "branchId": null,
        "deliveryZoneId": null,
        "__typename": "CountryAreas"
      },
      {
        "id": "1570",
        "titleEn": "Al Manakh (Riyadh)",
        "titleAr": "المناخ",
        "lat": 24.6082581,
        "lng": 46.7790942,
        "cityId": 48,
        "cityTitleEn": "Riyadh",
        "cityTitleAr": "الرياض",
        "branchId": null,
        "deliveryZoneId": null,
        "__typename": "CountryAreas"
      },
      {
        "id": "1571",
        "titleEn": "Al Manar (Riyadh)",
        "titleAr": "المنار",
        "lat": 24.7241748,
        "lng": 46.7972046,
        "cityId": 48,
        "cityTitleEn": "Riyadh",
        "cityTitleAr": "الرياض",
        "branchId": null,
        "deliveryZoneId": null,
        "__typename": "CountryAreas"
      },
      {
        "id": "1572",
        "titleEn": "Al Munsiyah (Riyadh)",
        "titleAr": "المونسية",
        "lat": 24.824207,
        "lng": 46.7714257,
        "cityId": 48,
        "cityTitleEn": "Riyadh",
        "cityTitleAr": "الرياض",
        "branchId": null,
        "deliveryZoneId": null,
        "__typename": "CountryAreas"
      },
      {
        "id": "1573",
        "titleEn": "Al Nakhil (Riyadh)",
        "titleAr": "النخيل",
        "lat": 26.4385647,
        "lng": 50.0893883,
        "cityId": 48,
        "cityTitleEn": "Riyadh",
        "cityTitleAr": "الرياض",
        "branchId": null,
        "deliveryZoneId": null,
        "__typename": "CountryAreas"
      },
      {
        "id": "1574",
        "titleEn": "Al Nada (Riyadh)",
        "titleAr": "الندى",
        "lat": 24.80561,
        "lng": 46.6843932,
        "cityId": 48,
        "cityTitleEn": "Riyadh",
        "cityTitleAr": "الرياض",
        "branchId": null,
        "deliveryZoneId": null,
        "__typename": "CountryAreas"
      },
      {
        "id": "1575",
        "titleEn": "Al Narjis (Riyadh)",
        "titleAr": "النرجس",
        "lat": 24.834231,
        "lng": 46.6794995,
        "cityId": 48,
        "cityTitleEn": "Riyadh",
        "cityTitleAr": "الرياض",
        "branchId": null,
        "deliveryZoneId": null,
        "__typename": "CountryAreas"
      },
      {
        "id": "1576",
        "titleEn": "Al Nuzhah (Riyadh)",
        "titleAr": "النزهة",
        "lat": 21.6197972,
        "lng": 39.1654803,
        "cityId": 48,
        "cityTitleEn": "Riyadh",
        "cityTitleAr": "الرياض",
        "branchId": null,
        "deliveryZoneId": null,
        "__typename": "CountryAreas"
      },
      {
        "id": "1577",
        "titleEn": "Al Nasim Al Sharqi (Riyadh)",
        "titleAr": "النسيم الشرقي",
        "lat": 24.742613,
        "lng": 46.840666,
        "cityId": 48,
        "cityTitleEn": "Riyadh",
        "cityTitleAr": "الرياض",
        "branchId": null,
        "deliveryZoneId": null,
        "__typename": "CountryAreas"
      },
      {
        "id": "1578",
        "titleEn": "Al Nasim Al Gharbi (Riyadh)",
        "titleAr": "النسيم الغربي",
        "lat": 24.7277912,
        "lng": 46.8193392,
        "cityId": 48,
        "cityTitleEn": "Riyadh",
        "cityTitleAr": "الرياض",
        "branchId": null,
        "deliveryZoneId": null,
        "__typename": "CountryAreas"
      },
      {
        "id": "1579",
        "titleEn": "Al Nadhim (Riyadh)",
        "titleAr": "النظيم",
        "lat": 24.791759,
        "lng": 46.893019,
        "cityId": 48,
        "cityTitleEn": "Riyadh",
        "cityTitleAr": "الرياض",
        "branchId": null,
        "deliveryZoneId": null,
        "__typename": "CountryAreas"
      },
      {
        "id": "1580",
        "titleEn": "Al Nafal (Riyadh)",
        "titleAr": "النفل",
        "lat": 24.783057,
        "lng": 46.6739149,
        "cityId": 48,
        "cityTitleEn": "Riyadh",
        "cityTitleAr": "الرياض",
        "branchId": null,
        "deliveryZoneId": null,
        "__typename": "CountryAreas"
      },
      {
        "id": "1581",
        "titleEn": "Al Namudhajiyah (Riyadh)",
        "titleAr": "النموذجية",
        "lat": 24.6583593,
        "lng": 46.6952159,
        "cityId": 48,
        "cityTitleEn": "Riyadh",
        "cityTitleAr": "الرياض",
        "branchId": null,
        "deliveryZoneId": null,
        "__typename": "CountryAreas"
      },
      {
        "id": "1582",
        "titleEn": "Al Nahdah (Riyadh)",
        "titleAr": "النهضة",
        "lat": 21.6178323,
        "lng": 39.1292795,
        "cityId": 48,
        "cityTitleEn": "Riyadh",
        "cityTitleAr": "الرياض",
        "branchId": null,
        "deliveryZoneId": null,
        "__typename": "CountryAreas"
      },
      {
        "id": "1583",
        "titleEn": "Al Nur (Riyadh)",
        "titleAr": "النور",
        "lat": 24.6335152,
        "lng": 46.8112859,
        "cityId": 48,
        "cityTitleEn": "Riyadh",
        "cityTitleAr": "الرياض",
        "branchId": null,
        "deliveryZoneId": null,
        "__typename": "CountryAreas"
      },
      {
        "id": "1584",
        "titleEn": "Al Wahah (Riyadh)",
        "titleAr": "الواحة",
        "lat": 24.7408827,
        "lng": 46.7168205,
        "cityId": 48,
        "cityTitleEn": "Riyadh",
        "cityTitleAr": "الرياض",
        "branchId": null,
        "deliveryZoneId": null,
        "__typename": "CountryAreas"
      },
      {
        "id": "1585",
        "titleEn": "Al Wurud (Riyadh)",
        "titleAr": "الورود",
        "lat": 24.7264738,
        "lng": 46.6807196,
        "cityId": 48,
        "cityTitleEn": "Riyadh",
        "cityTitleAr": "الرياض",
        "branchId": null,
        "deliveryZoneId": null,
        "__typename": "CountryAreas"
      },
      {
        "id": "1586",
        "titleEn": "Al Wizarat (Riyadh)",
        "titleAr": "الوزارات",
        "lat": 24.6743433,
        "lng": 46.7118689,
        "cityId": 48,
        "cityTitleEn": "Riyadh",
        "cityTitleAr": "الرياض",
        "branchId": null,
        "deliveryZoneId": null,
        "__typename": "CountryAreas"
      },
      {
        "id": "1587",
        "titleEn": "Al Wusaita (Riyadh)",
        "titleAr": "الوسيطا",
        "lat": 24.6245096,
        "lng": 46.7155194,
        "cityId": 48,
        "cityTitleEn": "Riyadh",
        "cityTitleAr": "الرياض",
        "branchId": null,
        "deliveryZoneId": null,
        "__typename": "CountryAreas"
      },
      {
        "id": "1588",
        "titleEn": "Al Yasmin (Riyadh)",
        "titleAr": "الياسمين",
        "lat": 24.8306614,
        "lng": 46.6367462,
        "cityId": 48,
        "cityTitleEn": "Riyadh",
        "cityTitleAr": "الرياض",
        "branchId": null,
        "deliveryZoneId": null,
        "__typename": "CountryAreas"
      },
      {
        "id": "1589",
        "titleEn": "Al Yarmuk (Riyadh)",
        "titleAr": "اليرموك",
        "lat": 24.8078338,
        "lng": 46.7798101,
        "cityId": 48,
        "cityTitleEn": "Riyadh",
        "cityTitleAr": "الرياض",
        "branchId": null,
        "deliveryZoneId": null,
        "__typename": "CountryAreas"
      },
      {
        "id": "1590",
        "titleEn": "Al Yamamah (Riyadh)",
        "titleAr": "اليمامة",
        "lat": 24.5937876,
        "lng": 46.7174434,
        "cityId": 48,
        "cityTitleEn": "Riyadh",
        "cityTitleAr": "الرياض",
        "branchId": null,
        "deliveryZoneId": null,
        "__typename": "CountryAreas"
      },
      {
        "id": "1591",
        "titleEn": "Umm Al Hamam Al Sharqi (Riyadh)",
        "titleAr": "أم الحمام الشرقي",
        "lat": 24.6773378,
        "lng": 46.6575708,
        "cityId": 48,
        "cityTitleEn": "Riyadh",
        "cityTitleAr": "الرياض",
        "branchId": null,
        "deliveryZoneId": null,
        "__typename": "CountryAreas"
      },
      {
        "id": "1592",
        "titleEn": "Umm Al Hamam Al Gharbi (Riyadh)",
        "titleAr": "أم الحمام الغربي",
        "lat": 24.6879898,
        "lng": 46.6439845,
        "cityId": 48,
        "cityTitleEn": "Riyadh",
        "cityTitleAr": "الرياض",
        "branchId": null,
        "deliveryZoneId": null,
        "__typename": "CountryAreas"
      },
      {
        "id": "1593",
        "titleEn": "Umm Salim (Riyadh)",
        "titleAr": "ام سليم",
        "lat": 24.6347527,
        "lng": 46.6983054,
        "cityId": 48,
        "cityTitleEn": "Riyadh",
        "cityTitleAr": "الرياض",
        "branchId": null,
        "deliveryZoneId": null,
        "__typename": "CountryAreas"
      },
      {
        "id": "1594",
        "titleEn": "Badr (Riyadh)",
        "titleAr": "بدر",
        "lat": 24.5427025,
        "lng": 46.7158488,
        "cityId": 48,
        "cityTitleEn": "Riyadh",
        "cityTitleAr": "الرياض",
        "branchId": null,
        "deliveryZoneId": null,
        "__typename": "CountryAreas"
      },
      {
        "id": "1595",
        "titleEn": "Thulaim (Riyadh)",
        "titleAr": "ثليم",
        "lat": 24.6411967,
        "lng": 46.7297178,
        "cityId": 48,
        "cityTitleEn": "Riyadh",
        "cityTitleAr": "الرياض",
        "branchId": null,
        "deliveryZoneId": null,
        "__typename": "CountryAreas"
      },
      {
        "id": "1596",
        "titleEn": "Imam Muhammad Ibn Saud Islamic University (Riyadh)",
        "titleAr": "جامعة الامام محمد بن سعود الاسلامية",
        "lat": 24.8135951,
        "lng": 46.7019289,
        "cityId": 48,
        "cityTitleEn": "Riyadh",
        "cityTitleAr": "الرياض",
        "branchId": null,
        "deliveryZoneId": null,
        "__typename": "CountryAreas"
      },
      {
        "id": "1597",
        "titleEn": "King Saud University (Riyadh)",
        "titleAr": "جامعة الملك سعود",
        "lat": 24.7239539,
        "lng": 46.6316125,
        "cityId": 48,
        "cityTitleEn": "Riyadh",
        "cityTitleAr": "الرياض",
        "branchId": null,
        "deliveryZoneId": null,
        "__typename": "CountryAreas"
      },
      {
        "id": "1598",
        "titleEn": "Jabrah (Riyadh)",
        "titleAr": "جبرة",
        "lat": 24.6250165,
        "lng": 46.7194462,
        "cityId": 48,
        "cityTitleEn": "Riyadh",
        "cityTitleAr": "الرياض",
        "branchId": null,
        "deliveryZoneId": null,
        "__typename": "CountryAreas"
      },
      {
        "id": "1599",
        "titleEn": "Jarir (Riyadh)",
        "titleAr": "جرير",
        "lat": 24.7447213,
        "lng": 46.6795184,
        "cityId": 48,
        "cityTitleEn": "Riyadh",
        "cityTitleAr": "الرياض",
        "branchId": null,
        "deliveryZoneId": null,
        "__typename": "CountryAreas"
      },
      {
        "id": "1600",
        "titleEn": "Hittin (Riyadh)",
        "titleAr": "حطين",
        "lat": 24.7621208,
        "lng": 46.6032569,
        "cityId": 48,
        "cityTitleEn": "Riyadh",
        "cityTitleAr": "الرياض",
        "branchId": null,
        "deliveryZoneId": null,
        "__typename": "CountryAreas"
      },
      {
        "id": "1601",
        "titleEn": "King Abdullah (Riyadh)",
        "titleAr": "الملك عبدالله",
        "lat": 24.7338333,
        "lng": 46.7454314,
        "cityId": 48,
        "cityTitleEn": "Riyadh",
        "cityTitleAr": "الرياض",
        "branchId": null,
        "deliveryZoneId": null,
        "__typename": "CountryAreas"
      },
      {
        "id": "1602",
        "titleEn": "King Abdul Aziz (Riyadh)",
        "titleAr": "الملك عبد العزيز",
        "lat": 24.7270315,
        "lng": 46.7098096,
        "cityId": 48,
        "cityTitleEn": "Riyadh",
        "cityTitleAr": "الرياض",
        "branchId": null,
        "deliveryZoneId": null,
        "__typename": "CountryAreas"
      },
      {
        "id": "1603",
        "titleEn": "King Faisal (Riyadh)",
        "titleAr": "الملك فيصل",
        "lat": 24.75876,
        "lng": 46.7761732,
        "cityId": 48,
        "cityTitleEn": "Riyadh",
        "cityTitleAr": "الرياض",
        "branchId": null,
        "deliveryZoneId": null,
        "__typename": "CountryAreas"
      },
      {
        "id": "1604",
        "titleEn": "Khashm Al An (Riyadh)",
        "titleAr": "خشم العان",
        "lat": 24.6575803,
        "lng": 46.9111783,
        "cityId": 48,
        "cityTitleEn": "Riyadh",
        "cityTitleAr": "الرياض",
        "branchId": null,
        "deliveryZoneId": null,
        "__typename": "CountryAreas"
      },
      {
        "id": "1605",
        "titleEn": "Dirab (Riyadh)",
        "titleAr": "ديراب",
        "lat": 24.5094082,
        "lng": 46.6174491,
        "cityId": 48,
        "cityTitleEn": "Riyadh",
        "cityTitleAr": "الرياض",
        "branchId": null,
        "deliveryZoneId": null,
        "__typename": "CountryAreas"
      },
      {
        "id": "1606",
        "titleEn": "Skirinah (Riyadh)",
        "titleAr": "سكيرينة",
        "lat": 24.6154305,
        "lng": 46.7176338,
        "cityId": 48,
        "cityTitleEn": "Riyadh",
        "cityTitleAr": "الرياض",
        "branchId": null,
        "deliveryZoneId": null,
        "__typename": "CountryAreas"
      },
      {
        "id": "1607",
        "titleEn": "Sultanah (Riyadh)",
        "titleAr": "سلطانة",
        "lat": 24.609205,
        "lng": 46.6861736,
        "cityId": 48,
        "cityTitleEn": "Riyadh",
        "cityTitleAr": "الرياض",
        "branchId": null,
        "deliveryZoneId": null,
        "__typename": "CountryAreas"
      },
      {
        "id": "1608",
        "titleEn": "Shubra (Riyadh)",
        "titleAr": "شبرا",
        "lat": 24.5747067,
        "lng": 46.6627971,
        "cityId": 48,
        "cityTitleEn": "Riyadh",
        "cityTitleAr": "الرياض",
        "branchId": null,
        "deliveryZoneId": null,
        "__typename": "CountryAreas"
      },
      {
        "id": "1609",
        "titleEn": "Salah Al Din (Riyadh)",
        "titleAr": "صلاح الدين",
        "lat": 24.7325379,
        "lng": 46.6970512,
        "cityId": 48,
        "cityTitleEn": "Riyadh",
        "cityTitleAr": "الرياض",
        "branchId": null,
        "deliveryZoneId": null,
        "__typename": "CountryAreas"
      },
      {
        "id": "1610",
        "titleEn": "Siyah (Riyadh)",
        "titleAr": "صياح",
        "lat": 24.6079041,
        "lng": 46.700585,
        "cityId": 48,
        "cityTitleEn": "Riyadh",
        "cityTitleAr": "الرياض",
        "branchId": null,
        "deliveryZoneId": null,
        "__typename": "CountryAreas"
      },
      {
        "id": "1611",
        "titleEn": "Tuwaiq (Riyadh)",
        "titleAr": "طويق",
        "lat": 24.5737576,
        "lng": 46.5459822,
        "cityId": 48,
        "cityTitleEn": "Riyadh",
        "cityTitleAr": "الرياض",
        "branchId": null,
        "deliveryZoneId": null,
        "__typename": "CountryAreas"
      },
      {
        "id": "1612",
        "titleEn": "Taybah (Riyadh)",
        "titleAr": "طيبة",
        "lat": 26.3560324,
        "lng": 50.0521405,
        "cityId": 48,
        "cityTitleEn": "Riyadh",
        "cityTitleAr": "الرياض",
        "branchId": null,
        "deliveryZoneId": null,
        "__typename": "CountryAreas"
      },
      {
        "id": "1613",
        "titleEn": "Dhahrat Al Badiaah (Riyadh)",
        "titleAr": "ظهرة البديعة",
        "lat": 24.5983707,
        "lng": 46.6455785,
        "cityId": 48,
        "cityTitleEn": "Riyadh",
        "cityTitleAr": "الرياض",
        "branchId": null,
        "deliveryZoneId": null,
        "__typename": "CountryAreas"
      },
      {
        "id": "1614",
        "titleEn": "Utaiqah (Riyadh)",
        "titleAr": "عتيقة",
        "lat": 24.5960589,
        "lng": 46.7067607,
        "cityId": 48,
        "cityTitleEn": "Riyadh",
        "cityTitleAr": "الرياض",
        "branchId": null,
        "deliveryZoneId": null,
        "__typename": "CountryAreas"
      },
      {
        "id": "1615",
        "titleEn": "Irqah (Riyadh)",
        "titleAr": "عرقة",
        "lat": 24.6871766,
        "lng": 46.5824066,
        "cityId": 48,
        "cityTitleEn": "Riyadh",
        "cityTitleAr": "الرياض",
        "branchId": null,
        "deliveryZoneId": null,
        "__typename": "CountryAreas"
      },
      {
        "id": "1616",
        "titleEn": "Okaz (Riyadh)",
        "titleAr": "عكاظ",
        "lat": 24.5075512,
        "lng": 46.6657058,
        "cityId": 48,
        "cityTitleEn": "Riyadh",
        "cityTitleAr": "الرياض",
        "branchId": null,
        "deliveryZoneId": null,
        "__typename": "CountryAreas"
      },
      {
        "id": "1617",
        "titleEn": "Ulaishah (Riyadh)",
        "titleAr": "عليشة",
        "lat": 24.6283675,
        "lng": 46.6831887,
        "cityId": 48,
        "cityTitleEn": "Riyadh",
        "cityTitleAr": "الرياض",
        "branchId": null,
        "deliveryZoneId": null,
        "__typename": "CountryAreas"
      },
      {
        "id": "1618",
        "titleEn": "Ghubairah (Riyadh)",
        "titleAr": "غبيرة",
        "lat": 24.6199401,
        "lng": 46.7369696,
        "cityId": 48,
        "cityTitleEn": "Riyadh",
        "cityTitleAr": "الرياض",
        "branchId": null,
        "deliveryZoneId": null,
        "__typename": "CountryAreas"
      },
      {
        "id": "1619",
        "titleEn": "Ghirnatah (Riyadh)",
        "titleAr": "غرناطة",
        "lat": 26.424401,
        "lng": 50.0818314,
        "cityId": 48,
        "cityTitleEn": "Riyadh",
        "cityTitleAr": "الرياض",
        "branchId": null,
        "deliveryZoneId": null,
        "__typename": "CountryAreas"
      },
      {
        "id": "1620",
        "titleEn": "Qurtubah (Riyadh)",
        "titleAr": "قرطبة",
        "lat": 24.816605,
        "lng": 46.7319752,
        "cityId": 48,
        "cityTitleEn": "Riyadh",
        "cityTitleAr": "الرياض",
        "branchId": null,
        "deliveryZoneId": null,
        "__typename": "CountryAreas"
      },
      {
        "id": "1621",
        "titleEn": "King Khalid International Airport (Riyadh)",
        "titleAr": "مطار الملك خالد الدولي",
        "lat": 24.9212378,
        "lng": 46.6898516,
        "cityId": 48,
        "cityTitleEn": "Riyadh",
        "cityTitleAr": "الرياض",
        "branchId": null,
        "deliveryZoneId": null,
        "__typename": "CountryAreas"
      },
      {
        "id": "1622",
        "titleEn": "Manfuhah (Riyadh)",
        "titleAr": "منفوحة",
        "lat": 24.5973836,
        "lng": 46.7266825,
        "cityId": 48,
        "cityTitleEn": "Riyadh",
        "cityTitleAr": "الرياض",
        "branchId": null,
        "deliveryZoneId": null,
        "__typename": "CountryAreas"
      },
      {
        "id": "1623",
        "titleEn": "Manfouhah Al Jadidah (Riyadh)",
        "titleAr": "منفوحة الجديدة",
        "lat": 24.6100491,
        "lng": 46.7177761,
        "cityId": 48,
        "cityTitleEn": "Riyadh",
        "cityTitleAr": "الرياض",
        "branchId": null,
        "deliveryZoneId": null,
        "__typename": "CountryAreas"
      },
      {
        "id": "1624",
        "titleEn": "Namar (Riyadh)",
        "titleAr": "نمار",
        "lat": 24.5768449,
        "lng": 46.6920624,
        "cityId": 48,
        "cityTitleEn": "Riyadh",
        "cityTitleAr": "الرياض",
        "branchId": null,
        "deliveryZoneId": null,
        "__typename": "CountryAreas"
      },
      {
        "id": "1625",
        "titleEn": "Ibn Khaldoon (Dammam)",
        "titleAr": "ابن خلدون",
        "lat": 26.4222795,
        "lng": 50.0977401,
        "cityId": 47,
        "cityTitleEn": "Dammam",
        "cityTitleAr": "الدمام",
        "branchId": null,
        "deliveryZoneId": null,
        "__typename": "CountryAreas"
      },
      {
        "id": "1626",
        "titleEn": "Uhud (Dammam)",
        "titleAr": "احد",
        "lat": 26.4133604,
        "lng": 50.0407493,
        "cityId": 47,
        "cityTitleEn": "Dammam",
        "cityTitleAr": "الدمام",
        "branchId": null,
        "deliveryZoneId": null,
        "__typename": "CountryAreas"
      },
      {
        "id": "1627",
        "titleEn": "Al Etisalat (Dammam)",
        "titleAr": "الإتصالات",
        "lat": 26.4131036,
        "lng": 50.0868188,
        "cityId": 47,
        "cityTitleEn": "Dammam",
        "cityTitleAr": "الدمام",
        "branchId": null,
        "deliveryZoneId": null,
        "__typename": "CountryAreas"
      },
      {
        "id": "1628",
        "titleEn": "Al Amal (Dammam)",
        "titleAr": "الأمل",
        "lat": 26.3439379,
        "lng": 50.0234953,
        "cityId": 47,
        "cityTitleEn": "Dammam",
        "cityTitleAr": "الدمام",
        "branchId": null,
        "deliveryZoneId": null,
        "__typename": "CountryAreas"
      },
      {
        "id": "1629",
        "titleEn": "Al Badiyah (Dammam)",
        "titleAr": "البادية",
        "lat": 26.4289926,
        "lng": 50.0896475,
        "cityId": 47,
        "cityTitleEn": "Dammam",
        "cityTitleAr": "الدمام",
        "branchId": null,
        "deliveryZoneId": null,
        "__typename": "CountryAreas"
      },
      {
        "id": "1630",
        "titleEn": "Al Basatin (Dammam)",
        "titleAr": "البساتين",
        "lat": 26.3996592,
        "lng": 50.1280763,
        "cityId": 47,
        "cityTitleEn": "Dammam",
        "cityTitleAr": "الدمام",
        "branchId": null,
        "deliveryZoneId": null,
        "__typename": "CountryAreas"
      },
      {
        "id": "1631",
        "titleEn": "Al Jamiyin (Dammam)",
        "titleAr": "الجامعيين",
        "lat": 26.3950118,
        "lng": 50.1002079,
        "cityId": 47,
        "cityTitleEn": "Dammam",
        "cityTitleAr": "الدمام",
        "branchId": null,
        "deliveryZoneId": null,
        "__typename": "CountryAreas"
      },
      {
        "id": "1632",
        "titleEn": "Al Jalawiyah (Dammam)",
        "titleAr": "الجلوية",
        "lat": 26.4327113,
        "lng": 50.0737057,
        "cityId": 47,
        "cityTitleEn": "Dammam",
        "cityTitleAr": "الدمام",
        "branchId": null,
        "deliveryZoneId": null,
        "__typename": "CountryAreas"
      },
      {
        "id": "1633",
        "titleEn": "Al Hamra (Dammam)",
        "titleAr": "حمراء",
        "lat": 26.4688121,
        "lng": 50.0922996,
        "cityId": 47,
        "cityTitleEn": "Dammam",
        "cityTitleAr": "الدمام",
        "branchId": null,
        "deliveryZoneId": null,
        "__typename": "CountryAreas"
      },
      {
        "id": "1634",
        "titleEn": "Al Khalij (Dammam)",
        "titleAr": "الخليج",
        "lat": 26.4459459,
        "lng": 50.0893883,
        "cityId": 47,
        "cityTitleEn": "Dammam",
        "cityTitleAr": "الدمام",
        "branchId": null,
        "deliveryZoneId": null,
        "__typename": "CountryAreas"
      },
      {
        "id": "1635",
        "titleEn": "Al Danah (Dammam)",
        "titleAr": "الدانة",
        "lat": 26.4665742,
        "lng": 50.0425111,
        "cityId": 47,
        "cityTitleEn": "Dammam",
        "cityTitleAr": "الدمام",
        "branchId": null,
        "deliveryZoneId": null,
        "__typename": "CountryAreas"
      },
      {
        "id": "1636",
        "titleEn": "Al Dawasir (Dammam)",
        "titleAr": "الدواسر",
        "lat": 26.4453095,
        "lng": 50.1022377,
        "cityId": 47,
        "cityTitleEn": "Dammam",
        "cityTitleAr": "الدمام",
        "branchId": null,
        "deliveryZoneId": null,
        "__typename": "CountryAreas"
      },
      {
        "id": "1637",
        "titleEn": "Al Zuhur (Dammam)",
        "titleAr": "الزهور",
        "lat": 26.4549642,
        "lng": 50.0888116,
        "cityId": 47,
        "cityTitleEn": "Dammam",
        "cityTitleAr": "الدمام",
        "branchId": null,
        "deliveryZoneId": null,
        "__typename": "CountryAreas"
      },
      {
        "id": "1638",
        "titleEn": "Al Saif (Dammam)",
        "titleAr": "السيف",
        "lat": 26.3852573,
        "lng": 50.2021332,
        "cityId": 47,
        "cityTitleEn": "Dammam",
        "cityTitleAr": "الدمام",
        "branchId": null,
        "deliveryZoneId": null,
        "__typename": "CountryAreas"
      },
      {
        "id": "1639",
        "titleEn": "Al Dabab (Dammam)",
        "titleAr": "الضباب",
        "lat": 26.4167636,
        "lng": 50.0596571,
        "cityId": 47,
        "cityTitleEn": "Dammam",
        "cityTitleAr": "الدمام",
        "branchId": null,
        "deliveryZoneId": null,
        "__typename": "CountryAreas"
      },
      {
        "id": "1640",
        "titleEn": "Al Aziziyah (Dammam)",
        "titleAr": "العزيزية",
        "lat": 21.5525941,
        "lng": 39.1886046,
        "cityId": 47,
        "cityTitleEn": "Dammam",
        "cityTitleAr": "الدمام",
        "branchId": null,
        "deliveryZoneId": null,
        "__typename": "CountryAreas"
      },
      {
        "id": "1641",
        "titleEn": "Al Amamrah (Dammam)",
        "titleAr": "عمامرة",
        "lat": 26.4446442,
        "lng": 50.1131619,
        "cityId": 47,
        "cityTitleEn": "Dammam",
        "cityTitleAr": "الدمام",
        "branchId": null,
        "deliveryZoneId": null,
        "__typename": "CountryAreas"
      },
      {
        "id": "1642",
        "titleEn": "Al Firdaws (Dammam)",
        "titleAr": "الفردوس",
        "lat": 26.3782707,
        "lng": 50.118946,
        "cityId": 47,
        "cityTitleEn": "Dammam",
        "cityTitleAr": "الدمام",
        "branchId": null,
        "deliveryZoneId": null,
        "__typename": "CountryAreas"
      },
      {
        "id": "1643",
        "titleEn": "Al Faiha (Dammam)",
        "titleAr": "الفيحاء",
        "lat": 21.4985935,
        "lng": 39.2167577,
        "cityId": 47,
        "cityTitleEn": "Dammam",
        "cityTitleAr": "الدمام",
        "branchId": null,
        "deliveryZoneId": null,
        "__typename": "CountryAreas"
      },
      {
        "id": "1644",
        "titleEn": "Al Faisaliyah (Dammam)",
        "titleAr": "الفيصلية",
        "lat": 21.5680451,
        "lng": 39.1828328,
        "cityId": 47,
        "cityTitleEn": "Dammam",
        "cityTitleAr": "الدمام",
        "branchId": null,
        "deliveryZoneId": null,
        "__typename": "CountryAreas"
      },
      {
        "id": "1645",
        "titleEn": "Al Qazaz (Dammam)",
        "titleAr": "القزاز",
        "lat": 26.4353574,
        "lng": 50.0945277,
        "cityId": 47,
        "cityTitleEn": "Dammam",
        "cityTitleAr": "الدمام",
        "branchId": null,
        "deliveryZoneId": null,
        "__typename": "CountryAreas"
      },
      {
        "id": "1646",
        "titleEn": "Al Muhammadiyah (Dammam)",
        "titleAr": "المحمدية",
        "lat": 26.4538703,
        "lng": 50.0594357,
        "cityId": 47,
        "cityTitleEn": "Dammam",
        "cityTitleAr": "الدمام",
        "branchId": null,
        "deliveryZoneId": null,
        "__typename": "CountryAreas"
      },
      {
        "id": "1647",
        "titleEn": "Dammam 2nd Industrial City (Dammam)",
        "titleAr": "المدينة الصناعية الثانية بالدمام",
        "lat": 26.2614069,
        "lng": 49.9674551,
        "cityId": 47,
        "cityTitleEn": "Dammam",
        "cityTitleAr": "الدمام",
        "branchId": null,
        "deliveryZoneId": null,
        "__typename": "CountryAreas"
      },
      {
        "id": "1648",
        "titleEn": "Muntazah (Dammam)",
        "titleAr": "منتزه",
        "lat": 26.3776982,
        "lng": 50.1345809,
        "cityId": 47,
        "cityTitleEn": "Dammam",
        "cityTitleAr": "الدمام",
        "branchId": null,
        "deliveryZoneId": null,
        "__typename": "CountryAreas"
      },
      {
        "id": "1649",
        "titleEn": "Industrial (Dammam)",
        "titleAr": "الصناعية",
        "lat": 26.2614069,
        "lng": 49.9674551,
        "cityId": 47,
        "cityTitleEn": "Dammam",
        "cityTitleAr": "الدمام",
        "branchId": null,
        "deliveryZoneId": null,
        "__typename": "CountryAreas"
      },
      {
        "id": "1650",
        "titleEn": "Al Nakhil (Dammam)",
        "titleAr": "النخيل",
        "lat": 26.4385647,
        "lng": 50.0893883,
        "cityId": 47,
        "cityTitleEn": "Dammam",
        "cityTitleAr": "الدمام",
        "branchId": null,
        "deliveryZoneId": null,
        "__typename": "CountryAreas"
      },
      {
        "id": "1651",
        "titleEn": "Al Nuzhah (Dammam)",
        "titleAr": "النزهة",
        "lat": 21.6197972,
        "lng": 39.1654803,
        "cityId": 47,
        "cityTitleEn": "Dammam",
        "cityTitleAr": "الدمام",
        "branchId": null,
        "deliveryZoneId": null,
        "__typename": "CountryAreas"
      },
      {
        "id": "1652",
        "titleEn": "Al Nahdah (Dammam)",
        "titleAr": "النهضة",
        "lat": 21.6178323,
        "lng": 39.1292795,
        "cityId": 47,
        "cityTitleEn": "Dammam",
        "cityTitleAr": "الدمام",
        "branchId": null,
        "deliveryZoneId": null,
        "__typename": "CountryAreas"
      },
      {
        "id": "1653",
        "titleEn": "Al Nawras (Dammam)",
        "titleAr": "النورس",
        "lat": 26.4103458,
        "lng": 50.1858252,
        "cityId": 47,
        "cityTitleEn": "Dammam",
        "cityTitleAr": "الدمام",
        "branchId": null,
        "deliveryZoneId": null,
        "__typename": "CountryAreas"
      },
      {
        "id": "1654",
        "titleEn": "Dahiyat Al Malik Fahad (Dammam)",
        "titleAr": "ضاحية الملك فهد",
        "lat": 26.4117815,
        "lng": 49.9930813,
        "cityId": 47,
        "cityTitleEn": "Dammam",
        "cityTitleAr": "الدمام",
        "branchId": null,
        "deliveryZoneId": null,
        "__typename": "CountryAreas"
      },
      {
        "id": "1655",
        "titleEn": "Taybah (Dammam)",
        "titleAr": "طيبة",
        "lat": 26.3560324,
        "lng": 50.0521405,
        "cityId": 47,
        "cityTitleEn": "Dammam",
        "cityTitleAr": "الدمام",
        "branchId": null,
        "deliveryZoneId": null,
        "__typename": "CountryAreas"
      },
      {
        "id": "1656",
        "titleEn": "Ghirnatah (Dammam)",
        "titleAr": "غرناطة",
        "lat": 26.424401,
        "lng": 50.0818314,
        "cityId": 47,
        "cityTitleEn": "Dammam",
        "cityTitleAr": "الدمام",
        "branchId": null,
        "deliveryZoneId": null,
        "__typename": "CountryAreas"
      },
      {
        "id": "1657",
        "titleEn": "Abruq Al Rughamah (Jeddah)",
        "titleAr": "ابرق الرغامة",
        "lat": 21.4994396,
        "lng": 39.2894844,
        "cityId": 49,
        "cityTitleEn": "Jeddah",
        "cityTitleAr": "جدة",
        "branchId": null,
        "deliveryZoneId": null,
        "__typename": "CountryAreas"
      },
      {
        "id": "1658",
        "titleEn": "Al Ajwad (Jeddah)",
        "titleAr": "الاجواد",
        "lat": 21.5997432,
        "lng": 39.2607485,
        "cityId": 49,
        "cityTitleEn": "Jeddah",
        "cityTitleAr": "جدة",
        "branchId": null,
        "deliveryZoneId": null,
        "__typename": "CountryAreas"
      },
      {
        "id": "1659",
        "titleEn": "Al Andalus (Jeddah)",
        "titleAr": "الأندلس",
        "lat": 21.5440697,
        "lng": 39.1446278,
        "cityId": 49,
        "cityTitleEn": "Jeddah",
        "cityTitleAr": "جدة",
        "branchId": null,
        "deliveryZoneId": null,
        "__typename": "CountryAreas"
      },
      {
        "id": "1660",
        "titleEn": "Al Basateen (Jeddah)",
        "titleAr": "البساتين",
        "lat": 21.684541,
        "lng": 39.1173548,
        "cityId": 49,
        "cityTitleEn": "Jeddah",
        "cityTitleAr": "جدة",
        "branchId": null,
        "deliveryZoneId": null,
        "__typename": "CountryAreas"
      },
      {
        "id": "1661",
        "titleEn": "Al Baghdadiyah Al Gharbiyah (Jeddah)",
        "titleAr": "البغدادية الغربية",
        "lat": 21.4986537,
        "lng": 39.1771442,
        "cityId": 49,
        "cityTitleEn": "Jeddah",
        "cityTitleAr": "جدة",
        "branchId": null,
        "deliveryZoneId": null,
        "__typename": "CountryAreas"
      },
      {
        "id": "1662",
        "titleEn": "Al Balad (Jeddah)",
        "titleAr": "البلد",
        "lat": 21.4811282,
        "lng": 39.1873485,
        "cityId": 49,
        "cityTitleEn": "Jeddah",
        "cityTitleAr": "جدة",
        "branchId": null,
        "deliveryZoneId": null,
        "__typename": "CountryAreas"
      },
      {
        "id": "1663",
        "titleEn": "Al Bawadi (Jeddah)",
        "titleAr": "البوادي",
        "lat": 21.5995537,
        "lng": 39.166361,
        "cityId": 49,
        "cityTitleEn": "Jeddah",
        "cityTitleAr": "جدة",
        "branchId": null,
        "deliveryZoneId": null,
        "__typename": "CountryAreas"
      },
      {
        "id": "1664",
        "titleEn": "Al Thaalibah (Jeddah)",
        "titleAr": "الثعالبة",
        "lat": 21.4645539,
        "lng": 39.1876353,
        "cityId": 49,
        "cityTitleEn": "Jeddah",
        "cityTitleAr": "جدة",
        "branchId": null,
        "deliveryZoneId": null,
        "__typename": "CountryAreas"
      },
      {
        "id": "1665",
        "titleEn": "Al Thaghr (Jeddah)",
        "titleAr": "الثغر",
        "lat": 21.4767758,
        "lng": 39.2273701,
        "cityId": 49,
        "cityTitleEn": "Jeddah",
        "cityTitleAr": "جدة",
        "branchId": null,
        "deliveryZoneId": null,
        "__typename": "CountryAreas"
      },
      {
        "id": "1666",
        "titleEn": "Al Jamaa (Jeddah)",
        "titleAr": "حي الجامعة",
        "lat": 21.4763185,
        "lng": 39.2526812,
        "cityId": 49,
        "cityTitleEn": "Jeddah",
        "cityTitleAr": "جدة",
        "branchId": null,
        "deliveryZoneId": null,
        "__typename": "CountryAreas"
      },
      {
        "id": "1667",
        "titleEn": "Al Hamraa (Jeddah)",
        "titleAr": "الحمراء",
        "lat": 21.5332276,
        "lng": 39.1717109,
        "cityId": 49,
        "cityTitleEn": "Jeddah",
        "cityTitleAr": "جدة",
        "branchId": null,
        "deliveryZoneId": null,
        "__typename": "CountryAreas"
      },
      {
        "id": "1668",
        "titleEn": "Al Khalidiyah (Jeddah)",
        "titleAr": "الخالدية",
        "lat": 21.5592977,
        "lng": 39.1342174,
        "cityId": 49,
        "cityTitleEn": "Jeddah",
        "cityTitleAr": "جدة",
        "branchId": null,
        "deliveryZoneId": null,
        "__typename": "CountryAreas"
      },
      {
        "id": "1669",
        "titleEn": "Al Rabwah (Jeddah)",
        "titleAr": "الربوة",
        "lat": 21.6035142,
        "lng": 39.1819419,
        "cityId": 49,
        "cityTitleEn": "Jeddah",
        "cityTitleAr": "جدة",
        "branchId": null,
        "deliveryZoneId": null,
        "__typename": "CountryAreas"
      },
      {
        "id": "1670",
        "titleEn": "Al Rehab (Jeddah)",
        "titleAr": "الرحاب",
        "lat": 21.5561321,
        "lng": 39.2202436,
        "cityId": 49,
        "cityTitleEn": "Jeddah",
        "cityTitleAr": "جدة",
        "branchId": null,
        "deliveryZoneId": null,
        "__typename": "CountryAreas"
      },
      {
        "id": "1671",
        "titleEn": "Al Rawabi (Jeddah)",
        "titleAr": "الروابي",
        "lat": 21.468377,
        "lng": 39.2697039,
        "cityId": 49,
        "cityTitleEn": "Jeddah",
        "cityTitleAr": "جدة",
        "branchId": null,
        "deliveryZoneId": null,
        "__typename": "CountryAreas"
      },
      {
        "id": "1672",
        "titleEn": "Al Rawdah (Jeddah)",
        "titleAr": "الروضة",
        "lat": 21.5593876,
        "lng": 39.15277,
        "cityId": 49,
        "cityTitleEn": "Jeddah",
        "cityTitleAr": "جدة",
        "branchId": null,
        "deliveryZoneId": null,
        "__typename": "CountryAreas"
      },
      {
        "id": "1673",
        "titleEn": "Al Ruwais (Jeddah)",
        "titleAr": "الرويس",
        "lat": 21.5171589,
        "lng": 39.1709209,
        "cityId": 49,
        "cityTitleEn": "Jeddah",
        "cityTitleAr": "جدة",
        "branchId": null,
        "deliveryZoneId": null,
        "__typename": "CountryAreas"
      },
      {
        "id": "1674",
        "titleEn": "Al Zahrah (Jeddah)",
        "titleAr": "الزهرة",
        "lat": 21.5368173,
        "lng": 39.1851318,
        "cityId": 49,
        "cityTitleEn": "Jeddah",
        "cityTitleAr": "جدة",
        "branchId": null,
        "deliveryZoneId": null,
        "__typename": "CountryAreas"
      },
      {
        "id": "1675",
        "titleEn": "Al Samer (Jeddah)",
        "titleAr": "السامر",
        "lat": 21.583802,
        "lng": 39.2460939,
        "cityId": 49,
        "cityTitleEn": "Jeddah",
        "cityTitleAr": "جدة",
        "branchId": null,
        "deliveryZoneId": null,
        "__typename": "CountryAreas"
      },
      {
        "id": "1676",
        "titleEn": "Al Sabeel (Jeddah)",
        "titleAr": "السبيل",
        "lat": 21.4826841,
        "lng": 39.2024712,
        "cityId": 49,
        "cityTitleEn": "Jeddah",
        "cityTitleAr": "جدة",
        "branchId": null,
        "deliveryZoneId": null,
        "__typename": "CountryAreas"
      },
      {
        "id": "1677",
        "titleEn": "Al Salamah (Jeddah)",
        "titleAr": "السلامة",
        "lat": 21.5951226,
        "lng": 39.1509793,
        "cityId": 49,
        "cityTitleEn": "Jeddah",
        "cityTitleAr": "جدة",
        "branchId": null,
        "deliveryZoneId": null,
        "__typename": "CountryAreas"
      },
      {
        "id": "1678",
        "titleEn": "Al Sulaymaniyah (Jeddah)",
        "titleAr": "السليمانية",
        "lat": 21.5046028,
        "lng": 39.2472575,
        "cityId": 49,
        "cityTitleEn": "Jeddah",
        "cityTitleAr": "جدة",
        "branchId": null,
        "deliveryZoneId": null,
        "__typename": "CountryAreas"
      },
      {
        "id": "1679",
        "titleEn": "Al Sharafeyah (Jeddah)",
        "titleAr": "الشرفية",
        "lat": 21.5170384,
        "lng": 39.189165,
        "cityId": 49,
        "cityTitleEn": "Jeddah",
        "cityTitleAr": "جدة",
        "branchId": null,
        "deliveryZoneId": null,
        "__typename": "CountryAreas"
      },
      {
        "id": "1680",
        "titleEn": "Al Sahifah (Jeddah)",
        "titleAr": "الصحيفة",
        "lat": 21.4873367,
        "lng": 39.1946731,
        "cityId": 49,
        "cityTitleEn": "Jeddah",
        "cityTitleAr": "جدة",
        "branchId": null,
        "deliveryZoneId": null,
        "__typename": "CountryAreas"
      },
      {
        "id": "1681",
        "titleEn": "Al Safa (Jeddah)",
        "titleAr": "الصفا",
        "lat": 21.5843701,
        "lng": 39.2177702,
        "cityId": 49,
        "cityTitleEn": "Jeddah",
        "cityTitleAr": "جدة",
        "branchId": null,
        "deliveryZoneId": null,
        "__typename": "CountryAreas"
      },
      {
        "id": "1682",
        "titleEn": "Al Aziziyah (Jeddah)",
        "titleAr": "العزيزية",
        "lat": 21.5525941,
        "lng": 39.1886046,
        "cityId": 49,
        "cityTitleEn": "Jeddah",
        "cityTitleAr": "جدة",
        "branchId": null,
        "deliveryZoneId": null,
        "__typename": "CountryAreas"
      },
      {
        "id": "1683",
        "titleEn": "Al Ammariyah (Jeddah)",
        "titleAr": "العماريه",
        "lat": 21.4922279,
        "lng": 39.1927234,
        "cityId": 49,
        "cityTitleEn": "Jeddah",
        "cityTitleAr": "جدة",
        "branchId": null,
        "deliveryZoneId": null,
        "__typename": "CountryAreas"
      },
      {
        "id": "1684",
        "titleEn": "Ghulail (Jeddah)",
        "titleAr": "غليل",
        "lat": 21.4532262,
        "lng": 39.2069399,
        "cityId": 49,
        "cityTitleEn": "Jeddah",
        "cityTitleAr": "جدة",
        "branchId": null,
        "deliveryZoneId": null,
        "__typename": "CountryAreas"
      },
      {
        "id": "1685",
        "titleEn": "Al Faiha (Jeddah)",
        "titleAr": "الفيحاء",
        "lat": 21.4985935,
        "lng": 39.2167577,
        "cityId": 49,
        "cityTitleEn": "Jeddah",
        "cityTitleAr": "جدة",
        "branchId": null,
        "deliveryZoneId": null,
        "__typename": "CountryAreas"
      },
      {
        "id": "1686",
        "titleEn": "Al Faisaliyah (Jeddah)",
        "titleAr": "الفيصلية",
        "lat": 21.5680451,
        "lng": 39.1828328,
        "cityId": 49,
        "cityTitleEn": "Jeddah",
        "cityTitleAr": "جدة",
        "branchId": null,
        "deliveryZoneId": null,
        "__typename": "CountryAreas"
      },
      {
        "id": "1687",
        "titleEn": "Al Qurayat (Jeddah)",
        "titleAr": "القريات",
        "lat": 21.4644825,
        "lng": 39.1985502,
        "cityId": 49,
        "cityTitleEn": "Jeddah",
        "cityTitleAr": "جدة",
        "branchId": null,
        "deliveryZoneId": null,
        "__typename": "CountryAreas"
      },
      {
        "id": "1688",
        "titleEn": "Al Kandarah (Jeddah)",
        "titleAr": "الكندرة",
        "lat": 21.4910205,
        "lng": 39.2037708,
        "cityId": 49,
        "cityTitleEn": "Jeddah",
        "cityTitleAr": "جدة",
        "branchId": null,
        "deliveryZoneId": null,
        "__typename": "CountryAreas"
      },
      {
        "id": "1689",
        "titleEn": "Al Mahjar (Jeddah)",
        "titleAr": "المحجر",
        "lat": 21.4296181,
        "lng": 39.2031439,
        "cityId": 49,
        "cityTitleEn": "Jeddah",
        "cityTitleAr": "جدة",
        "branchId": null,
        "deliveryZoneId": null,
        "__typename": "CountryAreas"
      },
      {
        "id": "1690",
        "titleEn": "Al Mohammadiyah (Jeddah)",
        "titleAr": "المحمدية",
        "lat": 21.6486557,
        "lng": 39.1270334,
        "cityId": 49,
        "cityTitleEn": "Jeddah",
        "cityTitleAr": "جدة",
        "branchId": null,
        "deliveryZoneId": null,
        "__typename": "CountryAreas"
      },
      {
        "id": "1691",
        "titleEn": "Al Marwah (Jeddah)",
        "titleAr": "المروة",
        "lat": 21.6196701,
        "lng": 39.2025802,
        "cityId": 49,
        "cityTitleEn": "Jeddah",
        "cityTitleAr": "جدة",
        "branchId": null,
        "deliveryZoneId": null,
        "__typename": "CountryAreas"
      },
      {
        "id": "1692",
        "titleEn": "Industrial Area (Jeddah)",
        "titleAr": "المنطقة الصناعية",
        "lat": 21.1101791,
        "lng": 39.242746,
        "cityId": 49,
        "cityTitleEn": "Jeddah",
        "cityTitleAr": "جدة",
        "branchId": null,
        "deliveryZoneId": null,
        "__typename": "CountryAreas"
      },
      {
        "id": "1693",
        "titleEn": "Al Nazlah Al Sharqiyah (Jeddah)",
        "titleAr": "النزلة الشرقية",
        "lat": 21.4751418,
        "lng": 39.220663,
        "cityId": 49,
        "cityTitleEn": "Jeddah",
        "cityTitleAr": "جدة",
        "branchId": null,
        "deliveryZoneId": null,
        "__typename": "CountryAreas"
      },
      {
        "id": "1694",
        "titleEn": "Al Nazlah Al Yamaniyah (Jeddah)",
        "titleAr": "النزلة اليمانية",
        "lat": 21.467509,
        "lng": 39.2135253,
        "cityId": 49,
        "cityTitleEn": "Jeddah",
        "cityTitleAr": "جدة",
        "branchId": null,
        "deliveryZoneId": null,
        "__typename": "CountryAreas"
      },
      {
        "id": "1695",
        "titleEn": "Al Nuzhah (Jeddah)",
        "titleAr": "النزهة",
        "lat": 21.6197972,
        "lng": 39.1654803,
        "cityId": 49,
        "cityTitleEn": "Jeddah",
        "cityTitleAr": "جدة",
        "branchId": null,
        "deliveryZoneId": null,
        "__typename": "CountryAreas"
      },
      {
        "id": "1696",
        "titleEn": "Al Naseem (Jeddah)",
        "titleAr": "النسيم",
        "lat": 21.5205078,
        "lng": 39.2338782,
        "cityId": 49,
        "cityTitleEn": "Jeddah",
        "cityTitleAr": "جدة",
        "branchId": null,
        "deliveryZoneId": null,
        "__typename": "CountryAreas"
      },
      {
        "id": "1697",
        "titleEn": "Al Naim (Jeddah)",
        "titleAr": "النعيم",
        "lat": 21.6299141,
        "lng": 39.144925,
        "cityId": 49,
        "cityTitleEn": "Jeddah",
        "cityTitleAr": "جدة",
        "branchId": null,
        "deliveryZoneId": null,
        "__typename": "CountryAreas"
      },
      {
        "id": "1698",
        "titleEn": "Al Nahdah (Jeddah)",
        "titleAr": "النهضة",
        "lat": 21.6178323,
        "lng": 39.1292795,
        "cityId": 49,
        "cityTitleEn": "Jeddah",
        "cityTitleAr": "جدة",
        "branchId": null,
        "deliveryZoneId": null,
        "__typename": "CountryAreas"
      },
      {
        "id": "1699",
        "titleEn": "Al Hindaweyah (Jeddah)",
        "titleAr": "الهندواية",
        "lat": 21.4730251,
        "lng": 39.1871261,
        "cityId": 49,
        "cityTitleEn": "Jeddah",
        "cityTitleAr": "جدة",
        "branchId": null,
        "deliveryZoneId": null,
        "__typename": "CountryAreas"
      },
      {
        "id": "1700",
        "titleEn": "Al Woroud (Jeddah)",
        "titleAr": "الورود",
        "lat": 21.5189607,
        "lng": 39.2044197,
        "cityId": 49,
        "cityTitleEn": "Jeddah",
        "cityTitleAr": "جدة",
        "branchId": null,
        "deliveryZoneId": null,
        "__typename": "CountryAreas"
      },
      {
        "id": "1701",
        "titleEn": "Al Wazeeriyah (Jeddah)",
        "titleAr": "الوزيرية",
        "lat": 21.4470516,
        "lng": 39.2484321,
        "cityId": 49,
        "cityTitleEn": "Jeddah",
        "cityTitleAr": "جدة",
        "branchId": null,
        "deliveryZoneId": null,
        "__typename": "CountryAreas"
      },
      {
        "id": "1702",
        "titleEn": "Petromin (Jeddah)",
        "titleAr": "بترومين",
        "lat": 21.6610711,
        "lng": 39.1197901,
        "cityId": 49,
        "cityTitleEn": "Jeddah",
        "cityTitleAr": "جدة",
        "branchId": null,
        "deliveryZoneId": null,
        "__typename": "CountryAreas"
      },
      {
        "id": "1703",
        "titleEn": "Bryman (Jeddah)",
        "titleAr": "بريمان",
        "lat": 21.6501476,
        "lng": 39.2479409,
        "cityId": 49,
        "cityTitleEn": "Jeddah",
        "cityTitleAr": "جدة",
        "branchId": null,
        "deliveryZoneId": null,
        "__typename": "CountryAreas"
      },
      {
        "id": "1704",
        "titleEn": "Al Jawharah (Jeddah)",
        "titleAr": "الجوهرة",
        "lat": 21.4372641,
        "lng": 39.2536464,
        "cityId": 49,
        "cityTitleEn": "Jeddah",
        "cityTitleAr": "جدة",
        "branchId": null,
        "deliveryZoneId": null,
        "__typename": "CountryAreas"
      },
      {
        "id": "1705",
        "titleEn": "Al Hamadaniyah (Jeddah)",
        "titleAr": "الحمدانية",
        "lat": 21.7505299,
        "lng": 39.1952855,
        "cityId": 49,
        "cityTitleEn": "Jeddah",
        "cityTitleAr": "جدة",
        "branchId": null,
        "deliveryZoneId": null,
        "__typename": "CountryAreas"
      },
      {
        "id": "1706",
        "titleEn": "Madain Al Fahad (Jeddah)",
        "titleAr": "مدائن الفهد",
        "lat": 21.4648452,
        "lng": 39.2392133,
        "cityId": 49,
        "cityTitleEn": "Jeddah",
        "cityTitleAr": "جدة",
        "branchId": null,
        "deliveryZoneId": null,
        "__typename": "CountryAreas"
      },
      {
        "id": "1707",
        "titleEn": "Mushrifah (Jeddah)",
        "titleAr": "مشرفة",
        "lat": 21.5376036,
        "lng": 39.1972263,
        "cityId": 49,
        "cityTitleEn": "Jeddah",
        "cityTitleAr": "جدة",
        "branchId": null,
        "deliveryZoneId": null,
        "__typename": "CountryAreas"
      },
      {
        "id": "1708",
        "titleEn": "King Abdulaziz International Airport (Jeddah)",
        "titleAr": "مطار الملك عبدالعزيز الدولي",
        "lat": 21.6804607,
        "lng": 39.1751737,
        "cityId": 49,
        "cityTitleEn": "Jeddah",
        "cityTitleAr": "جدة",
        "branchId": null,
        "deliveryZoneId": null,
        "__typename": "CountryAreas"
      },
      {
        "id": "1709",
        "titleEn": "Al Manar (Jeddah)",
        "titleAr": "المنار",
        "lat": 24.7241748,
        "lng": 46.7972046,
        "cityId": 49,
        "cityTitleEn": "Jeddah",
        "cityTitleAr": "جدة",
        "branchId": null,
        "deliveryZoneId": null,
        "__typename": "CountryAreas"
      },
      {
        "id": "1710",
        "titleEn": "New Industrial Area (Riyadh)",
        "titleAr": "المدينة الصناعية الجديدة",
        "lat": 24.5422619,
        "lng": 46.8979869,
        "cityId": 48,
        "cityTitleEn": "Riyadh",
        "cityTitleAr": "الرياض",
        "branchId": null,
        "deliveryZoneId": null,
        "__typename": "CountryAreas"
      },
      {
        "id": "1711",
        "titleEn": "Al Mansorah (Riyadh)",
        "titleAr": "المنصورة",
        "lat": 24.6091616,
        "lng": 46.749724,
        "cityId": 48,
        "cityTitleEn": "Riyadh",
        "cityTitleAr": "الرياض",
        "branchId": null,
        "deliveryZoneId": null,
        "__typename": "CountryAreas"
      },
      {
        "id": "1712",
        "titleEn": "Al Tubayshi (Dammam)",
        "titleAr": "الطبيشي",
        "lat": 26.432474,
        "lng": 50.1228024,
        "cityId": 47,
        "cityTitleEn": "Dammam",
        "cityTitleAr": "الدمام",
        "branchId": null,
        "deliveryZoneId": null,
        "__typename": "CountryAreas"
      },
      {
        "id": "1713",
        "titleEn": "Al Mazruiyah (Dammam)",
        "titleAr": "المزروعية",
        "lat": 26.444097,
        "lng": 50.1242425,
        "cityId": 47,
        "cityTitleEn": "Dammam",
        "cityTitleAr": "الدمام",
        "branchId": null,
        "deliveryZoneId": null,
        "__typename": "CountryAreas"
      },
      {
        "id": "1714",
        "titleEn": "Al Rabea (Dammam)",
        "titleAr": "الربيع",
        "lat": 26.4404973,
        "lng": 50.1099487,
        "cityId": 47,
        "cityTitleEn": "Dammam",
        "cityTitleAr": "الدمام",
        "branchId": null,
        "deliveryZoneId": null,
        "__typename": "CountryAreas"
      },
      {
        "id": "1715",
        "titleEn": "Al Hizam Al Zahabi (Khobar)",
        "titleAr": "الحزام الذهبي",
        "lat": 26.3169296,
        "lng": 50.2012694,
        "cityId": 50,
        "cityTitleEn": "Khobar",
        "cityTitleAr": "الخبر",
        "branchId": null,
        "deliveryZoneId": null,
        "__typename": "CountryAreas"
      },
      {
        "id": "1716",
        "titleEn": "Al Khobar Al Shamalia (Khobar)",
        "titleAr": "الخبر الشمالية",
        "lat": 26.2912053,
        "lng": 50.2136409,
        "cityId": 50,
        "cityTitleEn": "Khobar",
        "cityTitleAr": "الخبر",
        "branchId": null,
        "deliveryZoneId": null,
        "__typename": "CountryAreas"
      },
      {
        "id": "1717",
        "titleEn": "Al Rakah Al Janubiyah (Khobar)",
        "titleAr": "الراكة الجنوبية",
        "lat": 26.3510077,
        "lng": 50.1976767,
        "cityId": 50,
        "cityTitleEn": "Khobar",
        "cityTitleAr": "الخبر",
        "branchId": null,
        "deliveryZoneId": null,
        "__typename": "CountryAreas"
      },
      {
        "id": "1718",
        "titleEn": "Al Aqrabiyah (Khobar)",
        "titleAr": "عقربية",
        "lat": 26.2968876,
        "lng": 50.1932895,
        "cityId": 50,
        "cityTitleEn": "Khobar",
        "cityTitleAr": "الخبر",
        "branchId": null,
        "deliveryZoneId": null,
        "__typename": "CountryAreas"
      },
      {
        "id": "1719",
        "titleEn": "Al Ulaya (Khobar)",
        "titleAr": "العليا",
        "lat": 26.2979846,
        "lng": 50.1787119,
        "cityId": 50,
        "cityTitleEn": "Khobar",
        "cityTitleAr": "الخبر",
        "branchId": null,
        "deliveryZoneId": null,
        "__typename": "CountryAreas"
      },
      {
        "id": "1720",
        "titleEn": "Al Thuqbah (Khobar)",
        "titleAr": "الثقبة",
        "lat": 26.2761197,
        "lng": 50.1937199,
        "cityId": 50,
        "cityTitleEn": "Khobar",
        "cityTitleAr": "الخبر",
        "branchId": null,
        "deliveryZoneId": null,
        "__typename": "CountryAreas"
      },
      {
        "id": "1721",
        "titleEn": "Al Iskan (Khobar)",
        "titleAr": "الإسكان",
        "lat": 26.2570716,
        "lng": 50.2102802,
        "cityId": 50,
        "cityTitleEn": "Khobar",
        "cityTitleAr": "الخبر",
        "branchId": null,
        "deliveryZoneId": null,
        "__typename": "CountryAreas"
      },
      {
        "id": "1722",
        "titleEn": "Al Jisr (Khobar)",
        "titleAr": "الجسر",
        "lat": 26.2101997,
        "lng": 50.2064183,
        "cityId": 50,
        "cityTitleEn": "Khobar",
        "cityTitleAr": "الخبر",
        "branchId": null,
        "deliveryZoneId": null,
        "__typename": "CountryAreas"
      },
      {
        "id": "1723",
        "titleEn": "Al Khobar Al Janubiyah (Khobar)",
        "titleAr": "الخبر الجنوبية",
        "lat": 26.2742785,
        "lng": 50.2064183,
        "cityId": 50,
        "cityTitleEn": "Khobar",
        "cityTitleAr": "الخبر",
        "branchId": null,
        "deliveryZoneId": null,
        "__typename": "CountryAreas"
      },
      {
        "id": "1724",
        "titleEn": "Al Nakheel (Jeddah)",
        "titleAr": "النخيل",
        "lat": 21.5305465,
        "lng": 39.2622619,
        "cityId": 49,
        "cityTitleEn": "Jeddah",
        "cityTitleAr": "جدة",
        "branchId": null,
        "deliveryZoneId": null,
        "__typename": "CountryAreas"
      },
      {
        "id": "1725",
        "titleEn": "Al Adel (Jeddah)",
        "titleAr": "العدل",
        "lat": 21.6142678,
        "lng": 39.1206127,
        "cityId": 49,
        "cityTitleEn": "Jeddah",
        "cityTitleAr": "جدة",
        "branchId": null,
        "deliveryZoneId": null,
        "__typename": "CountryAreas"
      },
      {
        "id": "1726",
        "titleEn": "Al Rabiyah (Dammam)",
        "titleAr": "الرابية",
        "lat": 26.4635701,
        "lng": 50.0335251,
        "cityId": 47,
        "cityTitleEn": "Dammam",
        "cityTitleAr": "الدمام",
        "branchId": null,
        "deliveryZoneId": null,
        "__typename": "CountryAreas"
      },
      {
        "id": "1727",
        "titleEn": "Qurtoba (Khobar)",
        "titleAr": "قرطبة",
        "lat": 26.3413774,
        "lng": 50.1858252,
        "cityId": 50,
        "cityTitleEn": "Khobar",
        "cityTitleAr": "الخبر",
        "branchId": null,
        "deliveryZoneId": null,
        "__typename": "CountryAreas"
      },
      {
        "id": "1728",
        "titleEn": "Al Jawharah (Khobar)",
        "titleAr": "الجوهرة",
        "lat": 21.4372641,
        "lng": 39.2536464,
        "cityId": 50,
        "cityTitleEn": "Khobar",
        "cityTitleAr": "الخبر",
        "branchId": null,
        "deliveryZoneId": null,
        "__typename": "CountryAreas"
      },
      {
        "id": "1729",
        "titleEn": "Al Bustan (Khobar)",
        "titleAr": "البستان",
        "lat": 26.3219968,
        "lng": 50.212855,
        "cityId": 50,
        "cityTitleEn": "Khobar",
        "cityTitleAr": "الخبر",
        "branchId": null,
        "deliveryZoneId": null,
        "__typename": "CountryAreas"
      },
      {
        "id": "1730",
        "titleEn": "Al Oud (Riyadh)",
        "titleAr": "العود",
        "lat": 24.6297918,
        "lng": 46.7210821,
        "cityId": 48,
        "cityTitleEn": "Riyadh",
        "cityTitleAr": "الرياض",
        "branchId": null,
        "deliveryZoneId": null,
        "__typename": "CountryAreas"
      },
      {
        "id": "1731",
        "titleEn": "Al Mansuriyah (Riyadh)",
        "titleAr": "المنصورية",
        "lat": 24.5727107,
        "lng": 46.7394709,
        "cityId": 48,
        "cityTitleEn": "Riyadh",
        "cityTitleAr": "الرياض",
        "branchId": null,
        "deliveryZoneId": null,
        "__typename": "CountryAreas"
      },
      {
        "id": "1732",
        "titleEn": "Al Shati (Jeddah)",
        "titleAr": "الشاطئ",
        "lat": 21.6036921,
        "lng": 39.1113465,
        "cityId": 49,
        "cityTitleEn": "Jeddah",
        "cityTitleAr": "جدة",
        "branchId": null,
        "deliveryZoneId": null,
        "__typename": "CountryAreas"
      },
      {
        "id": "1733",
        "titleEn": "Al Manar (Dammam)",
        "titleAr": "المنار",
        "lat": 24.7241748,
        "lng": 46.7972046,
        "cityId": 47,
        "cityTitleEn": "Dammam",
        "cityTitleAr": "الدمام",
        "branchId": null,
        "deliveryZoneId": null,
        "__typename": "CountryAreas"
      },
      {
        "id": "1734",
        "titleEn": "Al Shulah (Dammam)",
        "titleAr": "الشعلة",
        "lat": 26.3582331,
        "lng": 50.067884,
        "cityId": 47,
        "cityTitleEn": "Dammam",
        "cityTitleAr": "الدمام",
        "branchId": null,
        "deliveryZoneId": null,
        "__typename": "CountryAreas"
      },
      {
        "id": "1735",
        "titleEn": "Al Athir (Dammam)",
        "titleAr": "الأثير",
        "lat": 26.4297147,
        "lng": 50.0626801,
        "cityId": 47,
        "cityTitleEn": "Dammam",
        "cityTitleAr": "الدمام",
        "branchId": null,
        "deliveryZoneId": null,
        "__typename": "CountryAreas"
      },
      {
        "id": "1736",
        "titleEn": "Al Rayyan (Dammam)",
        "titleAr": "الريان",
        "lat": 24.3136332,
        "lng": 45.8523026,
        "cityId": 47,
        "cityTitleEn": "Dammam",
        "cityTitleAr": "الدمام",
        "branchId": null,
        "deliveryZoneId": null,
        "__typename": "CountryAreas"
      },
      {
        "id": "1737",
        "titleEn": "Iskan Dammam (Dammam)",
        "titleAr": "إسكان الدمام",
        "lat": 26.4152449,
        "lng": 50.1228024,
        "cityId": 47,
        "cityTitleEn": "Dammam",
        "cityTitleAr": "الدمام",
        "branchId": null,
        "deliveryZoneId": null,
        "__typename": "CountryAreas"
      },
      {
        "id": "1738",
        "titleEn": "Abdullah Fuad (Dammam)",
        "titleAr": "عبدالله فؤاد",
        "lat": 26.4091827,
        "lng": 50.1190448,
        "cityId": 47,
        "cityTitleEn": "Dammam",
        "cityTitleAr": "الدمام",
        "branchId": null,
        "deliveryZoneId": null,
        "__typename": "CountryAreas"
      },
      {
        "id": "1739",
        "titleEn": "Madinat Al Ummal (Dammam)",
        "titleAr": "مدينة العمال",
        "lat": 26.4248755,
        "lng": 50.1073782,
        "cityId": 47,
        "cityTitleEn": "Dammam",
        "cityTitleAr": "الدمام",
        "branchId": null,
        "deliveryZoneId": null,
        "__typename": "CountryAreas"
      },
      {
        "id": "1740",
        "titleEn": "Al Khodaryah (Dammam)",
        "titleAr": "الخضرية",
        "lat": 26.4559807,
        "lng": 50.0484597,
        "cityId": 47,
        "cityTitleEn": "Dammam",
        "cityTitleAr": "الدمام",
        "branchId": null,
        "deliveryZoneId": null,
        "__typename": "CountryAreas"
      },
      {
        "id": "1741",
        "titleEn": "Al Qadisiyah (Dammam)",
        "titleAr": "القادسية",
        "lat": 24.8214142,
        "lng": 46.8164564,
        "cityId": 47,
        "cityTitleEn": "Dammam",
        "cityTitleAr": "الدمام",
        "branchId": null,
        "deliveryZoneId": null,
        "__typename": "CountryAreas"
      },
      {
        "id": "1742",
        "titleEn": "Al Hussam (Dammam)",
        "titleAr": "الحسام",
        "lat": 26.3871276,
        "lng": 50.1704351,
        "cityId": 47,
        "cityTitleEn": "Dammam",
        "cityTitleAr": "الدمام",
        "branchId": null,
        "deliveryZoneId": null,
        "__typename": "CountryAreas"
      },
      {
        "id": "1743",
        "titleEn": "Al Nada (Dammam)",
        "titleAr": "الندى",
        "lat": 24.80561,
        "lng": 46.6843932,
        "cityId": 47,
        "cityTitleEn": "Dammam",
        "cityTitleAr": "الدمام",
        "branchId": null,
        "deliveryZoneId": null,
        "__typename": "CountryAreas"
      },
      {
        "id": "1744",
        "titleEn": "Al Badea (Dammam)",
        "titleAr": "البديع",
        "lat": 26.4503955,
        "lng": 50.1138045,
        "cityId": 47,
        "cityTitleEn": "Dammam",
        "cityTitleAr": "الدمام",
        "branchId": null,
        "deliveryZoneId": null,
        "__typename": "CountryAreas"
      },
      {
        "id": "1745",
        "titleEn": "Al Souq (Dammam)",
        "titleAr": "السوق",
        "lat": 25.289189,
        "lng": 51.5373514,
        "cityId": 47,
        "cityTitleEn": "Dammam",
        "cityTitleAr": "الدمام",
        "branchId": null,
        "deliveryZoneId": null,
        "__typename": "CountryAreas"
      },
      {
        "id": "1746",
        "titleEn": "Al Khalidiyah Al Shamaliyah (Dammam)",
        "titleAr": "الخالدية الشمالية",
        "lat": 26.4147573,
        "lng": 50.1472321,
        "cityId": 47,
        "cityTitleEn": "Dammam",
        "cityTitleAr": "الدمام",
        "branchId": null,
        "deliveryZoneId": null,
        "__typename": "CountryAreas"
      },
      {
        "id": "1747",
        "titleEn": "Al Khalidiyah Al Janubiyah (Dammam)",
        "titleAr": "الخالدية الجنوبية",
        "lat": 26.4033155,
        "lng": 50.1635755,
        "cityId": 47,
        "cityTitleEn": "Dammam",
        "cityTitleAr": "الدمام",
        "branchId": null,
        "deliveryZoneId": null,
        "__typename": "CountryAreas"
      },
      {
        "id": "1748",
        "titleEn": "Dana Al Shamaliah (Dhahran)",
        "titleAr": "الدانة الشمالية",
        "lat": 26.3375746,
        "lng": 50.1446601,
        "cityId": 51,
        "cityTitleEn": "Dhahran",
        "cityTitleAr": "الظهران",
        "branchId": null,
        "deliveryZoneId": null,
        "__typename": "CountryAreas"
      },
      {
        "id": "1749",
        "titleEn": "Dana Al Janubiyah (Dhahran)",
        "titleAr": "الدانة الجنوبية",
        "lat": 26.3277737,
        "lng": 50.1485181,
        "cityId": 51,
        "cityTitleEn": "Dhahran",
        "cityTitleAr": "الظهران",
        "branchId": null,
        "deliveryZoneId": null,
        "__typename": "CountryAreas"
      },
      {
        "id": "1750",
        "titleEn": "Doha Al Shamaliah (Dhahran)",
        "titleAr": "الدوحة الشمالية",
        "lat": 26.3362099,
        "lng": 50.1665256,
        "cityId": 51,
        "cityTitleEn": "Dhahran",
        "cityTitleAr": "الظهران",
        "branchId": null,
        "deliveryZoneId": null,
        "__typename": "CountryAreas"
      },
      {
        "id": "1751",
        "titleEn": "Doha Al Janubiyah (Dhahran)",
        "titleAr": "الدوحة الجنوبية",
        "lat": 26.3132373,
        "lng": 50.1678121,
        "cityId": 51,
        "cityTitleEn": "Dhahran",
        "cityTitleAr": "الظهران",
        "branchId": null,
        "deliveryZoneId": null,
        "__typename": "CountryAreas"
      },
      {
        "id": "1752",
        "titleEn": "Aramco (Dhahran)",
        "titleAr": "ارامكو",
        "lat": 26.3017586,
        "lng": 50.1343902,
        "cityId": 51,
        "cityTitleEn": "Dhahran",
        "cityTitleAr": "الظهران",
        "branchId": null,
        "deliveryZoneId": null,
        "__typename": "CountryAreas"
      },
      {
        "id": "1753",
        "titleEn": "King Fahd University of Petroleum and Minerals (Dhahran)",
        "titleAr": "جامعة الملك فهد للبترول والمعادن",
        "lat": 26.3048047,
        "lng": 50.1498042,
        "cityId": 51,
        "cityTitleEn": "Dhahran",
        "cityTitleAr": "الظهران",
        "branchId": null,
        "deliveryZoneId": null,
        "__typename": "CountryAreas"
      },
      {
        "id": "1754",
        "titleEn": "Al Haras Al Watani (Dhahran)",
        "titleAr": "الحرس الوطني",
        "lat": 26.3689317,
        "lng": 50.1575212,
        "cityId": 51,
        "cityTitleEn": "Dhahran",
        "cityTitleAr": "الظهران",
        "branchId": null,
        "deliveryZoneId": null,
        "__typename": "CountryAreas"
      },
      {
        "id": "1755",
        "titleEn": "Al Shati Ash Sharqi (Dammam)",
        "titleAr": "الشاطئ الشرقي",
        "lat": 26.4730822,
        "lng": 50.1288048,
        "cityId": 47,
        "cityTitleEn": "Dammam",
        "cityTitleAr": "الدمام",
        "branchId": null,
        "deliveryZoneId": null,
        "__typename": "CountryAreas"
      },
      {
        "id": "1756",
        "titleEn": "Al Shati Al Gharbi (Dammam)",
        "titleAr": "الشاطئ الغربي",
        "lat": 26.4742682,
        "lng": 50.1201463,
        "cityId": 47,
        "cityTitleEn": "Dammam",
        "cityTitleAr": "الدمام",
        "branchId": null,
        "deliveryZoneId": null,
        "__typename": "CountryAreas"
      },
      {
        "id": "1757",
        "titleEn": "Al Mansak (Abha)",
        "titleAr": "المنسك",
        "lat": 18.2177726,
        "lng": 42.538702,
        "cityId": 54,
        "cityTitleEn": "Abha",
        "cityTitleAr": "أبها",
        "branchId": null,
        "deliveryZoneId": null,
        "__typename": "CountryAreas"
      },
      {
        "id": "1758",
        "titleEn": "Al Khalidiyah (Abha)",
        "titleAr": "الخالدية",
        "lat": 21.5592977,
        "lng": 39.1342174,
        "cityId": 54,
        "cityTitleEn": "Abha",
        "cityTitleAr": "أبها",
        "branchId": null,
        "deliveryZoneId": null,
        "__typename": "CountryAreas"
      },
      {
        "id": "1759",
        "titleEn": "Al Qabil (Abha)",
        "titleAr": "القابل",
        "lat": 18.2236253,
        "lng": 42.497616,
        "cityId": 54,
        "cityTitleEn": "Abha",
        "cityTitleAr": "أبها",
        "branchId": null,
        "deliveryZoneId": null,
        "__typename": "CountryAreas"
      },
      {
        "id": "1760",
        "titleEn": "Al Dabab (Abha)",
        "titleAr": "الضباب",
        "lat": 26.4167636,
        "lng": 50.0596571,
        "cityId": 54,
        "cityTitleEn": "Abha",
        "cityTitleAr": "أبها",
        "branchId": null,
        "deliveryZoneId": null,
        "__typename": "CountryAreas"
      },
      {
        "id": "1761",
        "titleEn": "Al Nuzhah (Abha)",
        "titleAr": "النزهة",
        "lat": 21.6197972,
        "lng": 39.1654803,
        "cityId": 54,
        "cityTitleEn": "Abha",
        "cityTitleAr": "أبها",
        "branchId": null,
        "deliveryZoneId": null,
        "__typename": "CountryAreas"
      },
      {
        "id": "1762",
        "titleEn": "Al Andalus (Abha)",
        "titleAr": "الاندلس",
        "lat": 24.7437195,
        "lng": 46.7906895,
        "cityId": 54,
        "cityTitleEn": "Abha",
        "cityTitleAr": "أبها",
        "branchId": null,
        "deliveryZoneId": null,
        "__typename": "CountryAreas"
      },
      {
        "id": "1763",
        "titleEn": "Al Manhal (Abha)",
        "titleAr": "المنهل",
        "lat": 18.2244534,
        "lng": 42.514177,
        "cityId": 54,
        "cityTitleEn": "Abha",
        "cityTitleAr": "أبها",
        "branchId": null,
        "deliveryZoneId": null,
        "__typename": "CountryAreas"
      },
      {
        "id": "1764",
        "titleEn": "Shamasan (Abha)",
        "titleAr": "شمسان",
        "lat": 18.2296814,
        "lng": 42.5080439,
        "cityId": 54,
        "cityTitleEn": "Abha",
        "cityTitleAr": "أبها",
        "branchId": null,
        "deliveryZoneId": null,
        "__typename": "CountryAreas"
      },
      {
        "id": "1765",
        "titleEn": "Al Nasab (Abha)",
        "titleAr": "النصب",
        "lat": 18.2184899,
        "lng": 42.5055904,
        "cityId": 54,
        "cityTitleEn": "Abha",
        "cityTitleAr": "أبها",
        "branchId": null,
        "deliveryZoneId": null,
        "__typename": "CountryAreas"
      },
      {
        "id": "1766",
        "titleEn": "Al Wardatain (Abha)",
        "titleAr": "الوردتين",
        "lat": 18.2282776,
        "lng": 42.4957756,
        "cityId": 54,
        "cityTitleEn": "Abha",
        "cityTitleAr": "أبها",
        "branchId": null,
        "deliveryZoneId": null,
        "__typename": "CountryAreas"
      },
      {
        "id": "1767",
        "titleEn": "Al Muftaha (Abha)",
        "titleAr": "المفتاحة",
        "lat": 18.2123402,
        "lng": 42.4933216,
        "cityId": 54,
        "cityTitleEn": "Abha",
        "cityTitleAr": "أبها",
        "branchId": null,
        "deliveryZoneId": null,
        "__typename": "CountryAreas"
      },
      {
        "id": "1768",
        "titleEn": "Al Bawadi (Khamis Mushait)",
        "titleAr": "البوادي",
        "lat": 21.5995537,
        "lng": 39.166361,
        "cityId": 55,
        "cityTitleEn": "Khamis Mushait",
        "cityTitleAr": "خميس مشيط",
        "branchId": null,
        "deliveryZoneId": null,
        "__typename": "CountryAreas"
      },
      {
        "id": "1769",
        "titleEn": "Al Nasim (Khamis Mushait)",
        "titleAr": "النسيم",
        "lat": 18.2947974,
        "lng": 42.7589084,
        "cityId": 55,
        "cityTitleEn": "Khamis Mushait",
        "cityTitleAr": "خميس مشيط",
        "branchId": null,
        "deliveryZoneId": null,
        "__typename": "CountryAreas"
      },
      {
        "id": "1770",
        "titleEn": "Tayyib Al Ism (Khamis Mushait)",
        "titleAr": "الطيب الأسم",
        "lat": 18.3190699,
        "lng": 42.7051666,
        "cityId": 55,
        "cityTitleEn": "Khamis Mushait",
        "cityTitleAr": "خميس مشيط",
        "branchId": null,
        "deliveryZoneId": null,
        "__typename": "CountryAreas"
      },
      {
        "id": "1771",
        "titleEn": "Al Raqi (Khamis Mushait)",
        "titleAr": "الراقي",
        "lat": 18.3306188,
        "lng": 42.7491414,
        "cityId": 55,
        "cityTitleEn": "Khamis Mushait",
        "cityTitleAr": "خميس مشيط",
        "branchId": null,
        "deliveryZoneId": null,
        "__typename": "CountryAreas"
      },
      {
        "id": "1772",
        "titleEn": "Al Sharafiyah (Khamis Mushait)",
        "titleAr": "الشرفية",
        "lat": 24.6577573,
        "lng": 46.6693269,
        "cityId": 55,
        "cityTitleEn": "Khamis Mushait",
        "cityTitleAr": "خميس مشيط",
        "branchId": null,
        "deliveryZoneId": null,
        "__typename": "CountryAreas"
      },
      {
        "id": "1773",
        "titleEn": "Al Mathnah (Khamis Mushait)",
        "titleAr": "المثناة",
        "lat": 18.2935789,
        "lng": 42.7332659,
        "cityId": 55,
        "cityTitleEn": "Khamis Mushait",
        "cityTitleAr": "خميس مشيط",
        "branchId": null,
        "deliveryZoneId": null,
        "__typename": "CountryAreas"
      },
      {
        "id": "1774",
        "titleEn": "Al Mousa (Khamis Mushait)",
        "titleAr": "الموسى",
        "lat": 18.3299596,
        "lng": 42.7686737,
        "cityId": 55,
        "cityTitleEn": "Khamis Mushait",
        "cityTitleAr": "خميس مشيط",
        "branchId": null,
        "deliveryZoneId": null,
        "__typename": "CountryAreas"
      },
      {
        "id": "1775",
        "titleEn": "Al Waha (Khamis Mushait)",
        "titleAr": "الواحة",
        "lat": 18.3298876,
        "lng": 42.7002782,
        "cityId": 55,
        "cityTitleEn": "Khamis Mushait",
        "cityTitleAr": "خميس مشيط",
        "branchId": null,
        "deliveryZoneId": null,
        "__typename": "CountryAreas"
      },
      {
        "id": "1776",
        "titleEn": "Al Khaldiyah (Khamis Mushait)",
        "titleAr": "الخالدية",
        "lat": 18.3043913,
        "lng": 42.7283802,
        "cityId": 55,
        "cityTitleEn": "Khamis Mushait",
        "cityTitleAr": "خميس مشيط",
        "branchId": null,
        "deliveryZoneId": null,
        "__typename": "CountryAreas"
      },
      {
        "id": "1777",
        "titleEn": "Al Nakhil (Khamis Mushait)",
        "titleAr": "النخيل",
        "lat": 26.4385647,
        "lng": 50.0893883,
        "cityId": 55,
        "cityTitleEn": "Khamis Mushait",
        "cityTitleAr": "خميس مشيط",
        "branchId": null,
        "deliveryZoneId": null,
        "__typename": "CountryAreas"
      },
      {
        "id": "1778",
        "titleEn": "Shehar Street (Taif)",
        "titleAr": "شارع شهار",
        "lat": 21.248981,
        "lng": 40.4137069,
        "cityId": 56,
        "cityTitleEn": "Taif",
        "cityTitleAr": "الطائف",
        "branchId": null,
        "deliveryZoneId": null,
        "__typename": "CountryAreas"
      },
      {
        "id": "1779",
        "titleEn": "North shuada (Taif)",
        "titleAr": "الشهداء الشمالية",
        "lat": 21.2692833,
        "lng": 40.4236161,
        "cityId": 56,
        "cityTitleEn": "Taif",
        "cityTitleAr": "الطائف",
        "branchId": null,
        "deliveryZoneId": null,
        "__typename": "CountryAreas"
      },
      {
        "id": "1780",
        "titleEn": "South shuada (Taif)",
        "titleAr": "الشهداء الجنوبية",
        "lat": 21.2591856,
        "lng": 40.4231505,
        "cityId": 56,
        "cityTitleEn": "Taif",
        "cityTitleAr": "الطائف",
        "branchId": null,
        "deliveryZoneId": null,
        "__typename": "CountryAreas"
      },
      {
        "id": "1781",
        "titleEn": "Al-Nozha (Taif)",
        "titleAr": "النزهة",
        "lat": 21.2496559,
        "lng": 40.4236161,
        "cityId": 56,
        "cityTitleEn": "Taif",
        "cityTitleAr": "الطائف",
        "branchId": null,
        "deliveryZoneId": null,
        "__typename": "CountryAreas"
      },